[{"rfid":10325.0,"subid":"S","name":"North Ledge","long":142.74,"lat":-10.68,"area":0.000482987,"perim":0.112430545,"bleach":4,"blchyn":1,"year":1998},{"rfid":10327.0,"subid":"S","name":"South Ledge","long":142.73,"lat":-10.7,"area":0.002727001,"perim":0.278056603,"bleach":4,"blchyn":1,"year":1998},{"rfid":10336.0,"subid":"S","name":"Wyborn Reef","long":142.76,"lat":-10.82,"area":0.000972495,"perim":0.145008076,"bleach":4,"blchyn":1,"year":1998},{"rfid":10338.0,"subid":"S","name":"Womer Reef","long":142.98,"lat":-10.8,"area":0.000176765,"perim":0.062292376,"bleach":4,"blchyn":1,"year":1998},{"rfid":10340.0,"subid":"S","name":"Turtle Island Reef","long":142.7,"lat":-10.89,"area":0.0000238,"perim":0.026305134,"bleach":4,"blchyn":1,"year":1998},{"rfid":11001.0,"subid":"S","name":"Arnold Reef","long":142.99,"lat":-11.01,"area":0.0000512,"perim":0.043238892,"bleach":4,"blchyn":1,"year":1998},{"rfid":11008.0,"subid":"S","name":"U\/N Reef","long":142.82,"lat":-11.25,"area":0.000133474,"perim":0.059197014,"bleach":3,"blchyn":1,"year":1998},{"rfid":11009.0,"subid":"S","name":"Bushy Island Reef","long":142.87,"lat":-11.26,"area":0.000154685,"perim":0.066145435,"bleach":4,"blchyn":1,"year":1998},{"rfid":11010.0,"subid":"S","name":"Cairncross Islets Reef","long":142.93,"lat":-11.25,"area":0.000161662,"perim":0.10284335,"bleach":4,"blchyn":1,"year":1998},{"rfid":11013.0,"subid":"S","name":"Halfway Islet Reef","long":142.97,"lat":-11.39,"area":0.0000564,"perim":0.032777189,"bleach":3,"blchyn":1,"year":1998},{"rfid":11025.0,"subid":"S","name":"U\/N Reef","long":143.09,"lat":-11.07,"area":0.001105041,"perim":0.126555468,"bleach":4,"blchyn":1,"year":1998},{"rfid":11026.0,"subid":"S","name":"Sinclair Reef","long":143.02,"lat":-11.11,"area":0.000148707,"perim":0.068202472,"bleach":4,"blchyn":1,"year":1998},{"rfid":11034.0,"subid":"S","name":"U\/N Reef","long":143.1,"lat":-11.17,"area":0.000960693,"perim":0.152944931,"bleach":4,"blchyn":1,"year":1998},{"rfid":11035.0,"subid":"S","name":"Milman-Aplin Reef","long":143.03,"lat":-11.18,"area":0.000493347,"perim":0.140203338,"bleach":3,"blchyn":1,"year":1998},{"rfid":11038.0,"subid":"S","name":"Douglas Islet Reef","long":143.0,"lat":-11.24,"area":0.000153251,"perim":0.062797142,"bleach":4,"blchyn":1,"year":1998},{"rfid":11052.0,"subid":"S","name":"Cholmondeley Reef","long":143.07,"lat":-11.39,"area":0.000646539,"perim":0.122954672,"bleach":4,"blchyn":1,"year":1998},{"rfid":11055.0,"subid":"S","name":"Wallace Islet Reef","long":143.04,"lat":-11.46,"area":0.00031418,"perim":0.084891233,"bleach":4,"blchyn":1,"year":1998},{"rfid":11061.0,"subid":"S","name":"Little Boydong Reef","long":143.04,"lat":-11.49,"area":0.000220676,"perim":0.076159285,"bleach":4,"blchyn":1,"year":1998},{"rfid":11091.0,"subid":"S","name":"U\/N Reef","long":143.96,"lat":-11.4,"area":0.0000729,"perim":0.036291681,"bleach":5,"blchyn":0,"year":1998},{"rfid":11132.0,"subid":"S","name":"Hunter Reefs","long":142.87,"lat":-11.51,"area":0.000388835,"perim":0.075750091,"bleach":3,"blchyn":1,"year":1998},{"rfid":11136.0,"subid":"S","name":"Hannibal Islands Reef","long":142.94,"lat":-11.6,"area":0.000217506,"perim":0.089904068,"bleach":4,"blchyn":1,"year":1998},{"rfid":11138.0,"subid":"S","name":"MacArthur Islands Reef","long":142.99,"lat":-11.73,"area":0.000245953,"perim":0.102010695,"bleach":4,"blchyn":1,"year":1998},{"rfid":11139.0,"subid":"S","name":"U\/N Reef","long":142.97,"lat":-11.76,"area":0.00053884,"perim":0.108749078,"bleach":3,"blchyn":1,"year":1998},{"rfid":11142.0,"subid":"S","name":"U\/N Reef","long":142.94,"lat":-11.77,"area":0.000404336,"perim":0.100033544,"bleach":4,"blchyn":1,"year":1998},{"rfid":11146.0,"subid":"S","name":"Nigger Head Reef","long":142.94,"lat":-11.8,"area":0.0000363,"perim":0.029953444,"bleach":4,"blchyn":1,"year":1998},{"rfid":11150.0,"subid":"S","name":"U\/N Reef","long":142.94,"lat":-11.84,"area":0.0000227,"perim":0.017406833,"bleach":3,"blchyn":1,"year":1998},{"rfid":11156.0,"subid":"S","name":"Wizard Reef","long":143.02,"lat":-11.55,"area":0.001666845,"perim":0.155343576,"bleach":4,"blchyn":1,"year":1998},{"rfid":11161.0,"subid":"S","name":"Viking Reef","long":143.01,"lat":-11.6,"area":0.000317472,"perim":0.078315954,"bleach":4,"blchyn":1,"year":1998},{"rfid":11167.0,"subid":"S","name":"Bird Islands Reef (North)","long":143.08,"lat":-11.77,"area":0.00028518,"perim":0.113105574,"bleach":4,"blchyn":1,"year":1998},{"rfid":11173.0,"subid":"S","name":"Cockburn Reef","long":143.36,"lat":-11.82,"area":0.02373252,"perim":0.673781563,"bleach":5,"blchyn":0,"year":1998},{"rfid":11175.0,"subid":"S","name":"U\/N Reef","long":143.3,"lat":-11.87,"area":0.00000378,"perim":0.007885893,"bleach":5,"blchyn":0,"year":1998},{"rfid":11176.0,"subid":"S","name":"Rodney Reef","long":143.11,"lat":-11.9,"area":0.000174124,"perim":0.073517452,"bleach":2,"blchyn":1,"year":1998},{"rfid":11185.0,"subid":"S","name":"Nob Reef","long":143.27,"lat":-11.95,"area":0.0000185,"perim":0.020200249,"bleach":4,"blchyn":1,"year":1998},{"rfid":11186.0,"subid":"S","name":"U\/N Reef","long":143.27,"lat":-11.96,"area":0.0000614,"perim":0.045783138,"bleach":4,"blchyn":1,"year":1998},{"rfid":11191.0,"subid":"S","name":"Hicks Reef","long":143.26,"lat":-11.99,"area":0.00011589,"perim":0.122388659,"bleach":4,"blchyn":1,"year":1998},{"rfid":11240.0,"subid":"S","name":"Yule Detached Reef","long":143.99,"lat":-11.95,"area":0.001076692,"perim":0.15438743,"bleach":5,"blchyn":0,"year":1998},{"rfid":11243.0,"subid":"S","name":"Raine Reef","long":144.04,"lat":-11.59,"area":0.000181699,"perim":0.078382008,"bleach":5,"blchyn":0,"year":1998},{"rfid":12001.0,"subid":"S","name":"Haggerston Reef","long":143.3,"lat":-12.03,"area":0.000308006,"perim":0.107203203,"bleach":4,"blchyn":1,"year":1998},{"rfid":12004.0,"subid":"S","name":"Moody Reef","long":143.26,"lat":-12.1,"area":0.000488187,"perim":0.099717551,"bleach":4,"blchyn":1,"year":1998},{"rfid":12006.0,"subid":"S","name":"Laurel Reef","long":143.27,"lat":-12.14,"area":0.000141603,"perim":0.06086205,"bleach":5,"blchyn":0,"year":1998},{"rfid":12007.0,"subid":"S","name":"Nomad Reef","long":143.37,"lat":-12.14,"area":0.004960603,"perim":0.471316335,"bleach":4,"blchyn":1,"year":1998},{"rfid":12010.0,"subid":"S","name":"Kay Reef","long":143.28,"lat":-12.23,"area":0.000593679,"perim":0.129200781,"bleach":4,"blchyn":1,"year":1998},{"rfid":12037.0,"subid":"S","name":"Wishbone Reef","long":143.97,"lat":-12.08,"area":0.001049626,"perim":0.258036023,"bleach":5,"blchyn":0,"year":1998},{"rfid":12056.0,"subid":"S","name":"Mantis Reef","long":143.92,"lat":-12.27,"area":0.002267862,"perim":0.426339775,"bleach":5,"blchyn":0,"year":1998},{"rfid":12084.0,"subid":"S","name":"Lloyd Island Reef","long":143.4,"lat":-12.75,"area":0.000170469,"perim":0.125111021,"bleach":4,"blchyn":1,"year":1998},{"rfid":12105.0,"subid":"S","name":"Burke Reef","long":143.56,"lat":-12.64,"area":0.000788302,"perim":0.140839568,"bleach":3,"blchyn":1,"year":1998},{"rfid":12112.0,"subid":"S","name":"Ape Reef","long":143.61,"lat":-12.71,"area":0.000872106,"perim":0.16843798,"bleach":3,"blchyn":1,"year":1998},{"rfid":12115.0,"subid":"S","name":"Zenith Reef","long":143.61,"lat":-12.77,"area":0.0001994,"perim":0.071199621,"bleach":3,"blchyn":1,"year":1998},{"rfid":12118.0,"subid":"S","name":"Bligh Reef","long":143.84,"lat":-12.83,"area":0.001297695,"perim":0.22685318,"bleach":5,"blchyn":0,"year":1998},{"rfid":12119.0,"subid":"S","name":"Wye Reef","long":143.61,"lat":-12.81,"area":0.0000619,"perim":0.030686786,"bleach":3,"blchyn":1,"year":1998},{"rfid":13005.0,"subid":"S","name":"Ham Reef","long":143.87,"lat":-13.04,"area":0.000159794,"perim":0.060163986,"bleach":5,"blchyn":0,"year":1998},{"rfid":13016.0,"subid":"S","name":null,"long":143.91,"lat":-13.08,"area":null,"perim":null,"bleach":5,"blchyn":0,"year":1998},{"rfid":13028.0,"subid":"S","name":"Tijou Reef","long":143.95,"lat":-13.14,"area":0.003293573,"perim":0.5006714,"bleach":5,"blchyn":0,"year":1998},{"rfid":13040.0,"subid":"S","name":"U\/N Reef","long":143.94,"lat":-13.27,"area":0.00026766,"perim":0.072728844,"bleach":5,"blchyn":0,"year":1998},{"rfid":13077.0,"subid":"S","name":"U\/N Reef","long":143.84,"lat":-13.56,"area":0.006141138,"perim":0.47839537,"bleach":5,"blchyn":0,"year":1998},{"rfid":13078.0,"subid":"S","name":"U\/N Reef","long":143.92,"lat":-13.64,"area":0.000287872,"perim":0.072702992,"bleach":5,"blchyn":0,"year":1998},{"rfid":13088.0,"subid":"S","name":"Lytton Reef","long":143.91,"lat":-13.74,"area":0.003640043,"perim":0.439175522,"bleach":5,"blchyn":0,"year":1998},{"rfid":13108.0,"subid":"S","name":"Hedge Reef","long":143.95,"lat":-13.91,"area":0.011255727,"perim":0.730361157,"bleach":5,"blchyn":0,"year":1998},{"rfid":14003.0,"subid":"S","name":"Grub Reef","long":143.98,"lat":-14.01,"area":0.002166242,"perim":0.461865716,"bleach":5,"blchyn":0,"year":1998},{"rfid":14016.0,"subid":"S","name":"Corbett Reef","long":144.11,"lat":-13.98,"area":0.017444619,"perim":0.902886171,"bleach":5,"blchyn":0,"year":1998},{"rfid":14017.0,"subid":"S","name":"Clack Reef","long":144.24,"lat":-14.07,"area":0.001014547,"perim":0.192992879,"bleach":5,"blchyn":0,"year":1998},{"rfid":14018.0,"subid":"S","name":"King Island Reef","long":144.32,"lat":-14.1,"area":0.000311201,"perim":0.150535468,"bleach":4,"blchyn":1,"year":1998},{"rfid":14053.0,"subid":"S","name":"U\/N Reef","long":144.79,"lat":-14.31,"area":0.000648003,"perim":0.1247012,"bleach":5,"blchyn":0,"year":1998},{"rfid":14054.0,"subid":"S","name":"Stapleton Reef","long":144.86,"lat":-14.32,"area":0.000391466,"perim":0.082780622,"bleach":5,"blchyn":0,"year":1998},{"rfid":14063.0,"subid":"S","name":"Combe Reef","long":144.95,"lat":-14.42,"area":0.003329789,"perim":0.250481772,"bleach":5,"blchyn":0,"year":1998},{"rfid":14082.0,"subid":"S","name":"Crescent Reef","long":145.1,"lat":-14.42,"area":0.001255974,"perim":0.255832498,"bleach":5,"blchyn":0,"year":1998},{"rfid":14083.0,"subid":"S","name":"Parke Reef","long":145.32,"lat":-14.42,"area":0.001808886,"perim":0.183756729,"bleach":5,"blchyn":0,"year":1998},{"rfid":14085.0,"subid":"S","name":"Hilder Reef","long":145.41,"lat":-14.45,"area":0.000983963,"perim":0.123512405,"bleach":5,"blchyn":0,"year":1998},{"rfid":14086.0,"subid":"S","name":"Hicks Reef","long":145.48,"lat":-14.45,"area":0.001849742,"perim":0.178823214,"bleach":5,"blchyn":0,"year":1998},{"rfid":14089.0,"subid":"S","name":"Day Reef","long":145.54,"lat":-14.5,"area":0.00165809,"perim":0.158499765,"bleach":5,"blchyn":0,"year":1998},{"rfid":14113.0,"subid":"S","name":"Petricola Shoal","long":145.48,"lat":-14.63,"area":0.0000511,"perim":0.027068334,"bleach":5,"blchyn":0,"year":1998},{"rfid":14114.0,"subid":"S","name":"MacGillivray Reef","long":145.49,"lat":-14.65,"area":0.0000414,"perim":0.035433293,"bleach":5,"blchyn":0,"year":1998},{"rfid":14115.0,"subid":"S","name":"Nymph Reef","long":145.25,"lat":-14.66,"area":0.00009,"perim":0.096503405,"bleach":5,"blchyn":0,"year":1998},{"rfid":14116.0,"subid":"A","name":"Lizard Island Reef (North West)","long":145.45,"lat":-14.66,"area":0.0000744,"perim":0.079079296,"bleach":5,"blchyn":0,"year":1998},{"rfid":14116.0,"subid":"B","name":"Lizard Island Reef (North East)","long":145.47,"lat":-14.66,"area":0.0000389,"perim":0.106103754,"bleach":5,"blchyn":0,"year":1998},{"rfid":14116.0,"subid":"C","name":"Lizard Island Reef (Coconut Bay)","long":145.47,"lat":-14.68,"area":0.0000411,"perim":0.029650829,"bleach":5,"blchyn":0,"year":1998},{"rfid":14118.0,"subid":"S","name":"Eyrie Reef","long":145.38,"lat":-14.71,"area":0.001001933,"perim":0.186515733,"bleach":5,"blchyn":0,"year":1998},{"rfid":14120.0,"subid":"A","name":"Turtle Group Reef (No 1)","long":145.19,"lat":-14.73,"area":0.0000451,"perim":0.044617955,"bleach":4,"blchyn":1,"year":1998},{"rfid":14120.0,"subid":"B","name":"Turtle Group Reef (No 2)","long":145.2,"lat":-14.74,"area":0.0000613,"perim":0.058145352,"bleach":4,"blchyn":1,"year":1998},{"rfid":14120.0,"subid":"C","name":"Turtle Group Reef (No 3)","long":145.18,"lat":-14.73,"area":0.00000731,"perim":0.014056918,"bleach":3,"blchyn":1,"year":1998},{"rfid":14120.0,"subid":"F","name":"Turtle Group Reef (No 6)","long":145.19,"lat":-14.72,"area":0.0000137,"perim":0.023793847,"bleach":4,"blchyn":1,"year":1998},{"rfid":14131.0,"subid":"S","name":"Decapolis Reef","long":145.27,"lat":-14.85,"area":0.0000136,"perim":0.013835651,"bleach":4,"blchyn":1,"year":1998},{"rfid":14133.0,"subid":"S","name":"U\/N Reef","long":145.51,"lat":-14.92,"area":0.000419157,"perim":0.10302566,"bleach":5,"blchyn":0,"year":1998},{"rfid":14135.0,"subid":"S","name":"Helsdon Reef","long":145.48,"lat":-14.94,"area":0.00089582,"perim":0.157361895,"bleach":5,"blchyn":0,"year":1998},{"rfid":14137.0,"subid":"S","name":"Carter Reef","long":145.59,"lat":-14.55,"area":0.001129653,"perim":0.145438443,"bleach":5,"blchyn":0,"year":1998},{"rfid":14138.0,"subid":"S","name":"Yonge Reef","long":145.62,"lat":-14.6,"area":0.000858216,"perim":0.1377912,"bleach":5,"blchyn":0,"year":1998},{"rfid":14139.0,"subid":"S","name":"No Name Reef","long":145.65,"lat":-14.65,"area":0.000570511,"perim":0.091095089,"bleach":5,"blchyn":0,"year":1998},{"rfid":14143.0,"subid":"S","name":"North Direction Reef","long":145.51,"lat":-14.74,"area":0.0000577,"perim":0.041539796,"bleach":5,"blchyn":0,"year":1998},{"rfid":14147.0,"subid":"A","name":"South Direction Reef (North)","long":145.52,"lat":-14.82,"area":0.00011152,"perim":0.078354465,"bleach":5,"blchyn":0,"year":1998},{"rfid":14147.0,"subid":"B","name":"South Direction Reef (South)","long":145.52,"lat":-14.81,"area":0.0000929,"perim":0.040070269,"bleach":5,"blchyn":0,"year":1998},{"rfid":14150.0,"subid":"B","name":null,"long":145.56,"lat":-14.88,"area":null,"perim":null,"bleach":5,"blchyn":0,"year":1998},{"rfid":14151.0,"subid":"S","name":"No 10 Patches (No 1)","long":145.69,"lat":-14.92,"area":0.0000555,"perim":0.027712726,"bleach":5,"blchyn":0,"year":1998},{"rfid":14152.0,"subid":"S","name":"No 10 Patches (No 2)","long":145.68,"lat":-14.93,"area":0.000101411,"perim":0.038557271,"bleach":5,"blchyn":0,"year":1998},{"rfid":14154.0,"subid":"S","name":"Ribbon No 9 Reef","long":145.7,"lat":-14.99,"area":0.001603723,"perim":0.169426948,"bleach":5,"blchyn":0,"year":1998},{"rfid":15002.0,"subid":"S","name":"Two Islands Reef","long":145.44,"lat":-15.02,"area":0.000111844,"perim":0.066270241,"bleach":4,"blchyn":1,"year":1998},{"rfid":15003.0,"subid":"S","name":"Low Wooded Reef","long":145.38,"lat":-15.1,"area":0.0000632,"perim":0.041122304,"bleach":1,"blchyn":1,"year":1998},{"rfid":15005.0,"subid":"S","name":"Three Islands Reef","long":145.42,"lat":-15.11,"area":0.000148016,"perim":0.0821825,"bleach":3,"blchyn":1,"year":1998},{"rfid":15006.0,"subid":"S","name":"Conical Rock Reef","long":145.32,"lat":-15.14,"area":0.000138475,"perim":0.073613096,"bleach":1,"blchyn":1,"year":1998},{"rfid":15006.0,"subid":"S","name":"Conical Rock Reef","long":145.32,"lat":-15.14,"area":0.000138475,"perim":0.073613096,"bleach":2,"blchyn":1,"year":1998},{"rfid":15008.0,"subid":"S","name":"Beor Reef","long":145.27,"lat":-15.16,"area":0.0000324,"perim":0.024586447,"bleach":2,"blchyn":1,"year":1998},{"rfid":15012.0,"subid":"S","name":"Boulder Reef","long":145.43,"lat":-15.41,"area":0.000939897,"perim":0.112194582,"bleach":4,"blchyn":1,"year":1998},{"rfid":15013.0,"subid":"S","name":"Egret Reef","long":145.42,"lat":-15.47,"area":0.000731638,"perim":0.099787048,"bleach":3,"blchyn":1,"year":1998},{"rfid":15018.0,"subid":"S","name":"Pasco Reef","long":145.53,"lat":-15.05,"area":0.000176731,"perim":0.05303331,"bleach":5,"blchyn":0,"year":1998},{"rfid":15019.0,"subid":"S","name":"Long Reef","long":145.57,"lat":-15.05,"area":0.000669858,"perim":0.116190905,"bleach":5,"blchyn":0,"year":1998},{"rfid":15021.0,"subid":"S","name":null,"long":145.72,"lat":-15.08,"area":null,"perim":null,"bleach":5,"blchyn":0,"year":1998},{"rfid":15024.0,"subid":"S","name":"Mackay Reefs","long":145.58,"lat":-15.14,"area":0.002361083,"perim":0.247353544,"bleach":5,"blchyn":0,"year":1998},{"rfid":15027.0,"subid":"S","name":"Marx Reef","long":145.62,"lat":-15.2,"area":0.000174407,"perim":0.057898851,"bleach":5,"blchyn":0,"year":1998},{"rfid":15028.0,"subid":"S","name":"Startle Reefs","long":145.56,"lat":-15.21,"area":0.001031374,"perim":0.200884555,"bleach":5,"blchyn":0,"year":1998},{"rfid":15031.0,"subid":"S","name":"Pullen Reefs","long":145.58,"lat":-15.25,"area":0.000187499,"perim":0.060824846,"bleach":5,"blchyn":0,"year":1998},{"rfid":15032.0,"subid":"S","name":"Ribbon No 6 Reef","long":145.75,"lat":-15.28,"area":0.000915979,"perim":0.119041776,"bleach":5,"blchyn":0,"year":1998},{"rfid":15035.0,"subid":"S","name":"U\/N Reef","long":145.64,"lat":-15.32,"area":0.0000258,"perim":0.020021136,"bleach":5,"blchyn":0,"year":1998},{"rfid":15036.0,"subid":"S","name":"U\/N Reef","long":145.65,"lat":-15.33,"area":0.000114128,"perim":0.043860586,"bleach":5,"blchyn":0,"year":1998},{"rfid":15039.0,"subid":"S","name":"Williamson Reefs","long":145.58,"lat":-15.36,"area":0.003230015,"perim":0.270770014,"bleach":5,"blchyn":0,"year":1998},{"rfid":15044.0,"subid":"S","name":"U\/N Reef","long":145.61,"lat":-15.43,"area":0.000363631,"perim":0.082111082,"bleach":5,"blchyn":0,"year":1998},{"rfid":15047.0,"subid":"S","name":"U\/N Reef","long":145.68,"lat":-15.46,"area":0.000460294,"perim":0.087343877,"bleach":5,"blchyn":0,"year":1998},{"rfid":15048.0,"subid":"S","name":"U\/N Reef","long":145.65,"lat":-15.49,"area":0.000173636,"perim":0.065284011,"bleach":5,"blchyn":0,"year":1998},{"rfid":15063.0,"subid":"S","name":"Gubbins Reef","long":145.39,"lat":-15.71,"area":0.000032,"perim":0.030401432,"bleach":1,"blchyn":1,"year":1998},{"rfid":15064.0,"subid":"S","name":"Hope Islands Reef (West)","long":145.44,"lat":-15.74,"area":0.000265546,"perim":0.092964818,"bleach":1,"blchyn":1,"year":1998},{"rfid":15065.0,"subid":"S","name":"Hope Islands Reef (East)","long":145.46,"lat":-15.74,"area":0.000385587,"perim":0.08201758,"bleach":2,"blchyn":1,"year":1998},{"rfid":15066.0,"subid":"S","name":"U\/N Reef","long":145.4,"lat":-15.94,"area":0.000102893,"perim":0.050490589,"bleach":3,"blchyn":1,"year":1998},{"rfid":15069.0,"subid":"S","name":"U\/N Reef","long":145.44,"lat":-16.0,"area":0.0000931,"perim":0.050386124,"bleach":3,"blchyn":1,"year":1998},{"rfid":15070.0,"subid":"S","name":"U\/N Reef","long":145.62,"lat":-15.5,"area":0.001019058,"perim":0.158431937,"bleach":5,"blchyn":0,"year":1998},{"rfid":15077.0,"subid":"S","name":"U\/N Reef","long":145.65,"lat":-15.56,"area":0.000507299,"perim":0.122002649,"bleach":5,"blchyn":0,"year":1998},{"rfid":15082.0,"subid":"S","name":"Emily Reef","long":145.63,"lat":-15.61,"area":0.002374988,"perim":0.23620567,"bleach":5,"blchyn":0,"year":1998},{"rfid":15086.0,"subid":"S","name":"Cairns Reef","long":145.5,"lat":-15.69,"area":0.004854056,"perim":0.620872033,"bleach":2,"blchyn":1,"year":1998},{"rfid":15086.0,"subid":"S","name":"Cairns Reef","long":145.5,"lat":-15.69,"area":0.004854056,"perim":0.620872033,"bleach":3,"blchyn":1,"year":1998},{"rfid":15089.0,"subid":"S","name":"Endeavour Reef","long":145.58,"lat":-15.78,"area":0.001143417,"perim":0.206187805,"bleach":3,"blchyn":1,"year":1998},{"rfid":15093.0,"subid":"S","name":"Pickersgill Reef","long":145.57,"lat":-15.88,"area":0.001349961,"perim":0.162048335,"bleach":5,"blchyn":0,"year":1998},{"rfid":15095.0,"subid":"S","name":"Evening Reef","long":145.66,"lat":-15.91,"area":0.000760374,"perim":0.108362058,"bleach":5,"blchyn":0,"year":1998},{"rfid":16002.0,"subid":"S","name":"U\/N Reef","long":145.47,"lat":-16.06,"area":0.000100281,"perim":0.05247282,"bleach":2,"blchyn":1,"year":1998},{"rfid":16005.0,"subid":"S","name":"Black Rock Reef","long":145.49,"lat":-16.25,"area":0.00000421,"perim":0.008926009,"bleach":2,"blchyn":1,"year":1998},{"rfid":16006.0,"subid":"S","name":"Snapper Reef","long":145.5,"lat":-16.3,"area":0.000119833,"perim":0.099920493,"bleach":3,"blchyn":1,"year":1998},{"rfid":16006.0,"subid":"S","name":"Snapper Reef","long":145.5,"lat":-16.3,"area":0.000119833,"perim":0.099920493,"bleach":2,"blchyn":1,"year":1998},{"rfid":16014.0,"subid":"S","name":null,"long":145.71,"lat":-16.03,"area":null,"perim":null,"bleach":4,"blchyn":1,"year":1998},{"rfid":16019.0,"subid":"S","name":"St Crispin Reef","long":145.84,"lat":-16.11,"area":0.002561956,"perim":0.246162069,"bleach":3,"blchyn":1,"year":1998},{"rfid":16020.0,"subid":"S","name":null,"long":145.67,"lat":-16.13,"area":null,"perim":null,"bleach":5,"blchyn":0,"year":1998},{"rfid":16023.0,"subid":"S","name":"Rudder Reef","long":145.7,"lat":-16.19,"area":0.003715322,"perim":0.275753362,"bleach":5,"blchyn":0,"year":1998},{"rfid":16028.0,"subid":"S","name":"Low Islands Reef","long":145.56,"lat":-16.39,"area":0.000216055,"perim":0.089839764,"bleach":1,"blchyn":1,"year":1998},{"rfid":16029.0,"subid":"S","name":"Batt Reef","long":145.77,"lat":-16.42,"area":0.010380281,"perim":0.433315117,"bleach":3,"blchyn":1,"year":1998},{"rfid":16038.0,"subid":"S","name":"Egmont Reef","long":145.54,"lat":-16.53,"area":0.00000273,"perim":0.006708378,"bleach":2,"blchyn":1,"year":1998},{"rfid":16039.0,"subid":"S","name":"Alexandra Reefs","long":145.5,"lat":-16.55,"area":0.000587369,"perim":0.231818451,"bleach":2,"blchyn":1,"year":1998},{"rfid":16046.0,"subid":"S","name":"Upolu Reef","long":145.94,"lat":-16.67,"area":0.000981274,"perim":0.142173261,"bleach":4,"blchyn":1,"year":1998},{"rfid":16047.0,"subid":"S","name":"Double Island Reef","long":145.68,"lat":-16.73,"area":0.0000806,"perim":0.042154473,"bleach":2,"blchyn":1,"year":1998},{"rfid":16049.0,"subid":"S","name":"Green Island Reef","long":145.99,"lat":-16.77,"area":0.001622689,"perim":0.177607616,"bleach":3,"blchyn":1,"year":1998},{"rfid":16049.0,"subid":"S","name":"Green Island Reef","long":145.99,"lat":-16.77,"area":0.001622689,"perim":0.177607616,"bleach":2,"blchyn":1,"year":1998},{"rfid":16055.0,"subid":"S","name":"Little Fitzroy Island Reef","long":146.0,"lat":-16.92,"area":0.0000255,"perim":0.025029266,"bleach":1,"blchyn":1,"year":1998},{"rfid":16063.0,"subid":"S","name":"Euston Reef","long":146.25,"lat":-16.69,"area":0.0000689,"perim":0.032751607,"bleach":3,"blchyn":1,"year":1998},{"rfid":16064.0,"subid":"S","name":"Arlington Reef","long":146.05,"lat":-16.7,"area":0.008480975,"perim":0.518379434,"bleach":4,"blchyn":1,"year":1998},{"rfid":16064.0,"subid":"S","name":"Arlington Reef","long":146.05,"lat":-16.7,"area":0.008480975,"perim":0.518379434,"bleach":3,"blchyn":1,"year":1998},{"rfid":16071.0,"subid":"S","name":"Moore Reef","long":146.21,"lat":-16.87,"area":0.002917686,"perim":0.230635482,"bleach":5,"blchyn":0,"year":1998},{"rfid":16073.0,"subid":"S","name":"Elford Reef","long":146.25,"lat":-16.92,"area":0.00249045,"perim":0.279523484,"bleach":5,"blchyn":0,"year":1998},{"rfid":16074.0,"subid":"S","name":"Briggs Reef","long":146.21,"lat":-16.94,"area":0.0000487,"perim":0.030001844,"bleach":3,"blchyn":1,"year":1998},{"rfid":16074.0,"subid":"S","name":"Briggs Reef","long":146.21,"lat":-16.94,"area":0.0000487,"perim":0.030001844,"bleach":4,"blchyn":1,"year":1998},{"rfid":16080.0,"subid":"S","name":"Korea Reef","long":145.55,"lat":-16.56,"area":0.0000269,"perim":0.019935647,"bleach":2,"blchyn":1,"year":1998},{"rfid":17001.0,"subid":"A","name":"Sudbury Reef (No 1)","long":146.22,"lat":-17.02,"area":0.007619953,"perim":0.558691369,"bleach":3,"blchyn":1,"year":1998},{"rfid":17004.0,"subid":"S","name":"Scott Reef","long":146.18,"lat":-17.07,"area":0.00139448,"perim":0.138727545,"bleach":3,"blchyn":1,"year":1998},{"rfid":17004.0,"subid":"S","name":"Scott Reef","long":146.18,"lat":-17.07,"area":0.00139448,"perim":0.138727545,"bleach":2,"blchyn":1,"year":1998},{"rfid":17004.0,"subid":"S","name":"Scott Reef","long":146.18,"lat":-17.07,"area":0.00139448,"perim":0.138727545,"bleach":4,"blchyn":1,"year":1998},{"rfid":17009.0,"subid":"S","name":null,"long":146.01,"lat":-17.15,"area":null,"perim":null,"bleach":1,"blchyn":1,"year":1998},{"rfid":17009.0,"subid":"S","name":null,"long":146.01,"lat":-17.15,"area":null,"perim":null,"bleach":2,"blchyn":1,"year":1998},{"rfid":17010.0,"subid":"S","name":"Flora Reef","long":146.29,"lat":-17.19,"area":0.000747894,"perim":0.106692226,"bleach":3,"blchyn":1,"year":1998},{"rfid":17011.0,"subid":"S","name":"Coates Reef","long":146.37,"lat":-17.2,"area":0.000317282,"perim":0.066492192,"bleach":2,"blchyn":1,"year":1998},{"rfid":17012.0,"subid":"A","name":"Normanby-Mabel Reef","long":146.08,"lat":-17.21,"area":0.0000456,"perim":0.038275652,"bleach":2,"blchyn":1,"year":1998},{"rfid":17012.0,"subid":"A","name":"Normanby-Mabel Reef","long":146.08,"lat":-17.21,"area":0.0000456,"perim":0.038275652,"bleach":2,"blchyn":1,"year":1998},{"rfid":17012.0,"subid":"B","name":"Jones Patch","long":146.08,"lat":-17.22,"area":0.00000316,"perim":0.006701969,"bleach":1,"blchyn":1,"year":1998},{"rfid":17013.0,"subid":"S","name":"Round-Russell Reef","long":146.09,"lat":-17.23,"area":0.0000589,"perim":0.058458697,"bleach":2,"blchyn":1,"year":1998},{"rfid":17013.0,"subid":"S","name":"Round-Russell Reef","long":146.09,"lat":-17.23,"area":0.0000589,"perim":0.058458697,"bleach":1,"blchyn":1,"year":1998},{"rfid":17013.0,"subid":"S","name":"Round-Russell Reef","long":146.09,"lat":-17.23,"area":0.0000589,"perim":0.058458697,"bleach":1,"blchyn":1,"year":1998},{"rfid":17017.0,"subid":"S","name":"Gibson Reef","long":146.36,"lat":-17.3,"area":0.002993186,"perim":0.255497267,"bleach":3,"blchyn":1,"year":1998},{"rfid":17017.0,"subid":"S","name":"Gibson Reef","long":146.36,"lat":-17.3,"area":0.002993186,"perim":0.255497267,"bleach":2,"blchyn":1,"year":1998},{"rfid":17018.0,"subid":"S","name":null,"long":146.42,"lat":-17.38,"area":null,"perim":null,"bleach":4,"blchyn":1,"year":1998},{"rfid":17018.0,"subid":"S","name":null,"long":146.4,"lat":-17.4,"area":null,"perim":null,"bleach":2,"blchyn":1,"year":1998},{"rfid":17024.0,"subid":"S","name":"Peart Reef","long":146.39,"lat":-17.49,"area":0.001316961,"perim":0.142251902,"bleach":3,"blchyn":1,"year":1998},{"rfid":17034.0,"subid":"S","name":"Feather Reef","long":146.38,"lat":-17.53,"area":0.001237589,"perim":0.138934208,"bleach":2,"blchyn":1,"year":1998},{"rfid":17035.0,"subid":"S","name":"Nathan Reef","long":146.52,"lat":-17.53,"area":0.00330987,"perim":0.28645963,"bleach":3,"blchyn":1,"year":1998},{"rfid":17035.0,"subid":"S","name":"Nathan Reef","long":146.52,"lat":-17.53,"area":0.00330987,"perim":0.28645963,"bleach":4,"blchyn":1,"year":1998},{"rfid":17037.0,"subid":"S","name":"Hall-Thompson Reef","long":146.45,"lat":-17.61,"area":0.00316748,"perim":0.271780728,"bleach":4,"blchyn":1,"year":1998},{"rfid":17042.0,"subid":"S","name":"Adelaide Reef","long":146.47,"lat":-17.66,"area":0.003694063,"perim":0.303935621,"bleach":3,"blchyn":1,"year":1998},{"rfid":17043.0,"subid":"A","name":"Jessie-Kent Reef","long":146.18,"lat":-17.68,"area":0.0000662,"perim":0.055169021,"bleach":1,"blchyn":1,"year":1998},{"rfid":17043.0,"subid":"B","name":"Bresnahan Reef","long":146.17,"lat":-17.68,"area":0.0000115,"perim":0.017881168,"bleach":2,"blchyn":1,"year":1998},{"rfid":17043.0,"subid":"C","name":"Hutchison Reef","long":146.17,"lat":-17.67,"area":0.0000185,"perim":0.029460034,"bleach":3,"blchyn":1,"year":1998},{"rfid":17044.0,"subid":"S","name":"Ellison Reef","long":146.39,"lat":-17.72,"area":0.001182136,"perim":0.134338041,"bleach":3,"blchyn":1,"year":1998},{"rfid":17044.0,"subid":"S","name":"Ellison Reef","long":146.39,"lat":-17.72,"area":0.001182136,"perim":0.134338041,"bleach":2,"blchyn":1,"year":1998},{"rfid":17046.0,"subid":"S","name":"Sisters-Stephens Reef","long":146.15,"lat":-17.75,"area":0.000382097,"perim":0.101426964,"bleach":4,"blchyn":1,"year":1998},{"rfid":17046.0,"subid":"S","name":"Sisters-Stephens Reef","long":146.15,"lat":-17.75,"area":0.000382097,"perim":0.101426964,"bleach":3,"blchyn":1,"year":1998},{"rfid":17046.0,"subid":"S","name":"Sisters-Stephens Reef","long":146.15,"lat":-17.75,"area":0.000382097,"perim":0.101426964,"bleach":4,"blchyn":1,"year":1998},{"rfid":17047.0,"subid":"S","name":"Eddy Reef","long":146.44,"lat":-17.77,"area":0.00068732,"perim":0.108557341,"bleach":3,"blchyn":1,"year":1998},{"rfid":17048.0,"subid":"S","name":"King Reefs","long":146.12,"lat":-17.77,"area":0.001286246,"perim":0.190863292,"bleach":2,"blchyn":1,"year":1998},{"rfid":17051.0,"subid":"S","name":"Beaver Reef","long":146.49,"lat":-17.85,"area":0.000987603,"perim":0.141052457,"bleach":3,"blchyn":1,"year":1998},{"rfid":17053.0,"subid":"S","name":"Stingaree Reefs","long":146.15,"lat":-17.96,"area":0.000150554,"perim":0.101877892,"bleach":2,"blchyn":1,"year":1998},{"rfid":17053.0,"subid":"S","name":"Stingaree Reefs","long":146.15,"lat":-17.96,"area":0.000150554,"perim":0.101877892,"bleach":2,"blchyn":1,"year":1998},{"rfid":17053.0,"subid":"S","name":"Stingaree Reefs","long":146.15,"lat":-17.96,"area":0.000150554,"perim":0.101877892,"bleach":2,"blchyn":1,"year":1998},{"rfid":17054.0,"subid":"S","name":"U\/N Reef","long":146.14,"lat":-17.97,"area":0.0000294,"perim":0.02775056,"bleach":1,"blchyn":1,"year":1998},{"rfid":17055.0,"subid":"S","name":"Thorpe (Timana) Reef","long":146.13,"lat":-17.98,"area":0.0000607,"perim":0.037501075,"bleach":4,"blchyn":1,"year":1998},{"rfid":17059.0,"subid":"A","name":"Potter Reef (No 1)","long":146.54,"lat":-17.7,"area":0.001318737,"perim":0.186920585,"bleach":2,"blchyn":1,"year":1998},{"rfid":17060.0,"subid":"S","name":"U\/N Reef","long":146.5,"lat":-17.74,"area":0.000175146,"perim":0.055717251,"bleach":5,"blchyn":0,"year":1998},{"rfid":17063.0,"subid":"A","name":"Farquharson Reef (No 1)","long":146.52,"lat":-17.79,"area":0.001645718,"perim":0.188076262,"bleach":5,"blchyn":0,"year":1998},{"rfid":17063.0,"subid":"A","name":"Farquharson Reef (No 1)","long":146.52,"lat":-17.79,"area":0.001645718,"perim":0.188076262,"bleach":4,"blchyn":1,"year":1998},{"rfid":17064.0,"subid":"S","name":"Taylor Reef","long":146.55,"lat":-17.83,"area":0.001438121,"perim":0.176304278,"bleach":5,"blchyn":0,"year":1998},{"rfid":17066.0,"subid":"S","name":"Yamacutta Reef","long":146.59,"lat":-17.89,"area":0.004564833,"perim":0.275953152,"bleach":2,"blchyn":1,"year":1998},{"rfid":17068.0,"subid":"S","name":"Moss Reef","long":146.8,"lat":-17.95,"area":0.000475965,"perim":0.10657991,"bleach":3,"blchyn":1,"year":1998},{"rfid":17069.0,"subid":"S","name":"U\/N Reef","long":146.77,"lat":-18.0,"area":0.000463411,"perim":0.081128665,"bleach":4,"blchyn":1,"year":1998},{"rfid":18001.0,"subid":"S","name":"Richards (Bedarra) Reef","long":146.15,"lat":-18.01,"area":0.0000414,"perim":0.048474123,"bleach":3,"blchyn":1,"year":1998},{"rfid":18003.0,"subid":"S","name":"Wheeler (Toolgbar) Island Reef","long":146.17,"lat":-18.02,"area":0.0000282,"perim":0.042016864,"bleach":4,"blchyn":1,"year":1998},{"rfid":18004.0,"subid":"S","name":"Coombe Reef","long":146.18,"lat":-18.0,"area":0.000038,"perim":0.05324419,"bleach":1,"blchyn":1,"year":1998},{"rfid":18005.0,"subid":"S","name":"Smith-Bowden Reef","long":146.2,"lat":-18.04,"area":0.0000662,"perim":0.05176576,"bleach":2,"blchyn":1,"year":1998},{"rfid":18006.0,"subid":"S","name":"Hudson (Coolah) Reef","long":146.2,"lat":-18.05,"area":0.0000427,"perim":0.037933633,"bleach":3,"blchyn":1,"year":1998},{"rfid":18006.0,"subid":"S","name":"Hudson (Coolah) Reef","long":146.21,"lat":-18.05,"area":0.0000427,"perim":0.037933633,"bleach":2,"blchyn":1,"year":1998},{"rfid":18007.0,"subid":"S","name":"Kennedy Shoal","long":146.45,"lat":-18.08,"area":0.000216832,"perim":0.05603384,"bleach":2,"blchyn":1,"year":1998},{"rfid":18008.0,"subid":"S","name":"Brook Islands Reef","long":146.29,"lat":-18.15,"area":0.000125585,"perim":0.093331911,"bleach":3,"blchyn":1,"year":1998},{"rfid":18008.0,"subid":"S","name":"Brook Islands Reef","long":146.29,"lat":-18.15,"area":0.000125585,"perim":0.093331911,"bleach":1,"blchyn":1,"year":1998},{"rfid":18008.0,"subid":"S","name":"Brook Islands Reef","long":146.29,"lat":-18.15,"area":0.000125585,"perim":0.093331911,"bleach":2,"blchyn":1,"year":1998},{"rfid":18008.0,"subid":"S","name":"Brook Islands Reef","long":146.29,"lat":-18.15,"area":0.000125585,"perim":0.093331911,"bleach":1,"blchyn":1,"year":1998},{"rfid":18008.0,"subid":"S","name":"Brook Islands Reef","long":146.29,"lat":-18.15,"area":0.000125585,"perim":0.093331911,"bleach":1,"blchyn":1,"year":1998},{"rfid":18010.0,"subid":"S","name":"Goold Reef","long":146.15,"lat":-18.17,"area":0.000295065,"perim":0.14656931,"bleach":4,"blchyn":1,"year":1998},{"rfid":18010.0,"subid":"S","name":"Goold Reef","long":146.15,"lat":-18.17,"area":0.000295065,"perim":0.14656931,"bleach":4,"blchyn":1,"year":1998},{"rfid":18010.0,"subid":"S","name":"Goold Reef","long":146.15,"lat":-18.17,"area":0.000295065,"perim":0.14656931,"bleach":4,"blchyn":1,"year":1998},{"rfid":18013.0,"subid":"S","name":"Eva Reef","long":146.32,"lat":-18.24,"area":0.0000619,"perim":0.0467884,"bleach":3,"blchyn":1,"year":1998},{"rfid":18017.0,"subid":"S","name":"Reg Ward Reef","long":146.79,"lat":-18.04,"area":0.000305263,"perim":0.078540857,"bleach":3,"blchyn":1,"year":1998},{"rfid":18018.0,"subid":"S","name":"Otter Reef","long":146.56,"lat":-18.05,"area":0.011571911,"perim":0.426849659,"bleach":2,"blchyn":1,"year":1998},{"rfid":18020.0,"subid":"S","name":"Duncan Reef","long":146.8,"lat":-18.1,"area":0.001569072,"perim":0.199376571,"bleach":2,"blchyn":1,"year":1998},{"rfid":18022.0,"subid":"S","name":"U\/N Reef","long":146.76,"lat":-18.12,"area":0.001272138,"perim":0.15795073,"bleach":3,"blchyn":1,"year":1998},{"rfid":18023.0,"subid":"S","name":"U\/N Reef","long":146.97,"lat":-18.14,"area":0.000269547,"perim":0.063724981,"bleach":4,"blchyn":1,"year":1998},{"rfid":18024.0,"subid":"S","name":"Britomart Reef","long":146.73,"lat":-18.23,"area":0.011549136,"perim":0.525575708,"bleach":5,"blchyn":0,"year":1998},{"rfid":18026.0,"subid":"S","name":"U\/N Reef","long":146.74,"lat":-18.32,"area":0.002351098,"perim":0.186791049,"bleach":5,"blchyn":0,"year":1998},{"rfid":18027.0,"subid":"S","name":"Trunk Reef","long":146.83,"lat":-18.35,"area":0.009860248,"perim":0.397361597,"bleach":4,"blchyn":1,"year":1998},{"rfid":18029.0,"subid":"S","name":"Bramble Reef","long":146.71,"lat":-18.41,"area":0.005232396,"perim":0.274557234,"bleach":3,"blchyn":1,"year":1998},{"rfid":18029.0,"subid":"S","name":"Bramble Reef","long":146.71,"lat":-18.41,"area":0.005232396,"perim":0.274557234,"bleach":4,"blchyn":1,"year":1998},{"rfid":18030.0,"subid":"S","name":"Kelso Reef","long":146.99,"lat":-18.43,"area":0.000733516,"perim":0.11065064,"bleach":4,"blchyn":1,"year":1998},{"rfid":18031.0,"subid":"S","name":"Little Kelso Reef","long":146.99,"lat":-18.47,"area":0.000295759,"perim":0.071178118,"bleach":5,"blchyn":0,"year":1998},{"rfid":18032.0,"subid":"S","name":"Rib Reef","long":146.87,"lat":-18.48,"area":0.000379165,"perim":0.071088293,"bleach":4,"blchyn":1,"year":1998},{"rfid":18034.0,"subid":"S","name":"Myrmidon Reef","long":147.39,"lat":-18.27,"area":0.000492045,"perim":0.085026471,"bleach":4,"blchyn":1,"year":1998},{"rfid":18039.0,"subid":"S","name":"Dip Reef","long":147.45,"lat":-18.41,"area":0.000458246,"perim":0.117432742,"bleach":5,"blchyn":0,"year":1998},{"rfid":18041.0,"subid":"S","name":"Faraday Reef","long":147.35,"lat":-18.42,"area":0.000233749,"perim":0.062615843,"bleach":5,"blchyn":0,"year":1998},{"rfid":18046.0,"subid":"S","name":"Coil Reef","long":147.52,"lat":-18.44,"area":0.000136978,"perim":0.044680913,"bleach":5,"blchyn":0,"year":1998},{"rfid":18048.0,"subid":"S","name":"Pelorus (North Palm or Yanooa) Reef","long":146.49,"lat":-18.56,"area":0.0000831,"perim":0.063417223,"bleach":2,"blchyn":1,"year":1998},{"rfid":18048.0,"subid":"S","name":"Pelorus (North Palm or Yanooa) Reef","long":146.49,"lat":-18.56,"area":0.0000831,"perim":0.063417223,"bleach":2,"blchyn":1,"year":1998},{"rfid":18048.0,"subid":"S","name":"Pelorus (North Palm or Yanooa) Reef","long":146.49,"lat":-18.56,"area":0.0000831,"perim":0.063417223,"bleach":2,"blchyn":1,"year":1998},{"rfid":18049.0,"subid":"A","name":"Orpheus (Goolboddi) Island Reef (No 1)","long":146.49,"lat":-18.6,"area":0.000139022,"perim":0.060623414,"bleach":2,"blchyn":1,"year":1998},{"rfid":18049.0,"subid":"B","name":"Orpheus (Goolboddi) Island Reef (No 2)","long":146.49,"lat":-18.64,"area":0.0000848,"perim":0.043948673,"bleach":2,"blchyn":1,"year":1998},{"rfid":18049.0,"subid":"C","name":"Orpheus (Goolboddi) Island Reef (No 3)","long":146.49,"lat":-18.66,"area":0.00014083,"perim":0.093658797,"bleach":2,"blchyn":1,"year":1998},{"rfid":18049.0,"subid":"D","name":"Orpheus (Goolboddi) Island Reef (No 4)","long":146.5,"lat":-18.64,"area":0.0000433,"perim":0.039450067,"bleach":1,"blchyn":1,"year":1998},{"rfid":18049.0,"subid":"E","name":"Orpheus (Goolboddi) Island Reef (No 5)","long":146.5,"lat":-18.59,"area":0.00017432,"perim":0.142464446,"bleach":2,"blchyn":1,"year":1998},{"rfid":18051.0,"subid":"S","name":"Pandora Reef","long":146.43,"lat":-18.81,"area":0.0000245,"perim":0.021520102,"bleach":2,"blchyn":1,"year":1998},{"rfid":18052.0,"subid":"A","name":"Curacoa (Noogoo) Reef (No 1)","long":146.56,"lat":-18.67,"area":0.0000288,"perim":0.032971936,"bleach":1,"blchyn":1,"year":1998},{"rfid":18052.0,"subid":"B","name":"Curacoa (Noogoo) Reef (No 2)","long":146.55,"lat":-18.68,"area":0.000206011,"perim":0.124645681,"bleach":3,"blchyn":1,"year":1998},{"rfid":18054.0,"subid":"A","name":"Great Palm Island Reef (No 1)","long":146.58,"lat":-18.72,"area":0.000615395,"perim":0.171574024,"bleach":3,"blchyn":1,"year":1998},{"rfid":18054.0,"subid":"E","name":"Great Palm Island Reef (No 5)","long":146.64,"lat":-18.74,"area":0.00019652,"perim":0.140086009,"bleach":1,"blchyn":1,"year":1998},{"rfid":18054.0,"subid":"F","name":"Great Palm Island Reef (No 6)","long":146.6,"lat":-18.7,"area":0.0000641,"perim":0.053199616,"bleach":2,"blchyn":1,"year":1998},{"rfid":18054.0,"subid":"G","name":"Great Palm Island Reef (No 7)","long":146.58,"lat":-18.68,"area":0.0000471,"perim":0.031785705,"bleach":2,"blchyn":1,"year":1998},{"rfid":18054.0,"subid":"S","name":null,"long":146.69,"lat":-18.74,"area":null,"perim":null,"bleach":1,"blchyn":1,"year":1998},{"rfid":18058.0,"subid":"S","name":"Eclipse (Garoogubbee) Reef","long":146.55,"lat":-18.77,"area":0.0000103,"perim":0.018428272,"bleach":2,"blchyn":1,"year":1998},{"rfid":18059.0,"subid":"S","name":"Esk (Soopun) Reef","long":146.52,"lat":-18.78,"area":0.0000199,"perim":0.024181191,"bleach":1,"blchyn":1,"year":1998},{"rfid":18061.0,"subid":"S","name":"Barber (Boodthean) Reef","long":146.67,"lat":-18.78,"area":0.00000871,"perim":0.019033467,"bleach":2,"blchyn":1,"year":1998},{"rfid":18062.0,"subid":"S","name":"Brisk-Falcon Reef","long":146.53,"lat":-18.78,"area":0.0000691,"perim":0.053613507,"bleach":2,"blchyn":1,"year":1998},{"rfid":18064.0,"subid":"S","name":"Fly Island Reef","long":146.52,"lat":-18.83,"area":0.0000197,"perim":0.018212948,"bleach":2,"blchyn":1,"year":1998},{"rfid":18065.0,"subid":"S","name":"Havannah Reef","long":146.54,"lat":-18.84,"area":0.000073,"perim":0.043213644,"bleach":2,"blchyn":1,"year":1998},{"rfid":18066.0,"subid":"S","name":"Acheron Reef","long":146.63,"lat":-18.97,"area":0.0000225,"perim":0.019803538,"bleach":1,"blchyn":1,"year":1998},{"rfid":18066.0,"subid":"S","name":"Acheron Reef","long":146.63,"lat":-18.97,"area":0.0000225,"perim":0.019803538,"bleach":1,"blchyn":1,"year":1998},{"rfid":18067.0,"subid":"S","name":"Phillips Reef","long":146.62,"lat":-18.98,"area":0.000000854,"perim":0.003281852,"bleach":1,"blchyn":1,"year":1998},{"rfid":18074.0,"subid":"S","name":"Yankee Reef","long":147.49,"lat":-18.57,"area":0.000803489,"perim":0.145412062,"bleach":4,"blchyn":1,"year":1998},{"rfid":18075.0,"subid":"S","name":"John Brewer Reef","long":147.05,"lat":-18.63,"area":0.001426555,"perim":0.149163316,"bleach":5,"blchyn":0,"year":1998},{"rfid":18078.0,"subid":"S","name":"Lodestone Reef","long":147.1,"lat":-18.7,"area":0.000465035,"perim":0.083643421,"bleach":4,"blchyn":1,"year":1998},{"rfid":18079.0,"subid":"S","name":"Keeper Reef","long":147.27,"lat":-18.75,"area":0.000432275,"perim":0.092370994,"bleach":4,"blchyn":1,"year":1998},{"rfid":18080.0,"subid":"S","name":"Bowl Reef","long":147.54,"lat":-18.51,"area":0.001744626,"perim":0.210074151,"bleach":5,"blchyn":0,"year":1998},{"rfid":18084.0,"subid":"A","name":"Cup Reef (North)","long":147.61,"lat":-18.62,"area":0.000231616,"perim":0.071206189,"bleach":5,"blchyn":0,"year":1998},{"rfid":18084.0,"subid":"B","name":"Cup Reef (South)","long":147.59,"lat":-18.64,"area":0.000176191,"perim":0.068984693,"bleach":5,"blchyn":0,"year":1998},{"rfid":18084.0,"subid":"C","name":"Saucer Reef","long":147.6,"lat":-18.66,"area":0.000132605,"perim":0.056614873,"bleach":5,"blchyn":0,"year":1998},{"rfid":18086.0,"subid":"S","name":"Chicken Reef","long":147.71,"lat":-18.66,"area":0.000343498,"perim":0.067928726,"bleach":4,"blchyn":1,"year":1998},{"rfid":18088.0,"subid":"S","name":"Centipede Reef","long":147.54,"lat":-18.73,"area":0.002239323,"perim":0.194202186,"bleach":4,"blchyn":1,"year":1998},{"rfid":18090.0,"subid":"S","name":"Anzac Reefs (No 3)","long":147.84,"lat":-18.73,"area":0.000081,"perim":0.036691934,"bleach":4,"blchyn":1,"year":1998},{"rfid":18091.0,"subid":"S","name":"Lynchs Reef","long":147.71,"lat":-18.77,"area":0.003173579,"perim":0.224337338,"bleach":4,"blchyn":1,"year":1998},{"rfid":18094.0,"subid":"S","name":"Anzac Reefs (No 6)","long":147.87,"lat":-18.78,"area":0.000390474,"perim":0.100844545,"bleach":4,"blchyn":1,"year":1998},{"rfid":18095.0,"subid":"S","name":"Wheeler Reef","long":147.53,"lat":-18.8,"area":0.0000754,"perim":0.032210107,"bleach":5,"blchyn":0,"year":1998},{"rfid":18099.0,"subid":"S","name":"Saville-Kent Reef","long":147.89,"lat":-18.86,"area":0.000931365,"perim":0.144507921,"bleach":4,"blchyn":1,"year":1998},{"rfid":18100.0,"subid":"S","name":null,"long":147.74,"lat":-18.92,"area":null,"perim":null,"bleach":5,"blchyn":0,"year":1998},{"rfid":18100.0,"subid":"S","name":null,"long":147.72,"lat":-18.87,"area":null,"perim":null,"bleach":4,"blchyn":1,"year":1998},{"rfid":18101.0,"subid":"S","name":"Judith Wright Reef","long":147.96,"lat":-18.9,"area":0.001689249,"perim":0.194008232,"bleach":3,"blchyn":1,"year":1998},{"rfid":18101.0,"subid":"S","name":"Judith Wright Reef","long":147.96,"lat":-18.9,"area":0.001689249,"perim":0.194008232,"bleach":4,"blchyn":1,"year":1998},{"rfid":18106.0,"subid":"S","name":"(Little) Broadhurst Reef","long":147.7,"lat":-18.97,"area":0.001119397,"perim":0.123403694,"bleach":5,"blchyn":0,"year":1998},{"rfid":18118.0,"subid":"S","name":"Shrimp Reef","long":148.08,"lat":-18.95,"area":0.000643366,"perim":0.103042243,"bleach":4,"blchyn":1,"year":1998},{"rfid":19002.0,"subid":"S","name":"Herald Island Reef","long":146.63,"lat":-19.03,"area":0.0000239,"perim":0.022966967,"bleach":1,"blchyn":1,"year":1998},{"rfid":19005.0,"subid":"S","name":"Paluma Shoals","long":146.56,"lat":-19.1,"area":0.000108657,"perim":0.047341644,"bleach":2,"blchyn":1,"year":1998},{"rfid":19007.0,"subid":"S","name":"Bay Rock Reef","long":146.76,"lat":-19.12,"area":0.000000685,"perim":0.006836662,"bleach":1,"blchyn":1,"year":1998},{"rfid":19009.0,"subid":"B","name":"Magnetic Island Reef (No 1)","long":146.85,"lat":-19.17,"area":0.0000521,"perim":0.055930385,"bleach":3,"blchyn":1,"year":1998},{"rfid":19009.0,"subid":"C","name":"Magnetic Island Reef (No 2)","long":146.87,"lat":-19.16,"area":0.0000349,"perim":0.036463085,"bleach":2,"blchyn":1,"year":1998},{"rfid":19010.0,"subid":"S","name":"U\/N Reef","long":146.84,"lat":-19.19,"area":0.0000283,"perim":0.023110608,"bleach":2,"blchyn":1,"year":1998},{"rfid":19011.0,"subid":"S","name":"Middle Reef","long":146.81,"lat":-19.2,"area":0.0000349,"perim":0.027208094,"bleach":2,"blchyn":1,"year":1998},{"rfid":19012.0,"subid":"S","name":"Virago Shoal","long":146.8,"lat":-19.21,"area":0.0000367,"perim":0.022455348,"bleach":1,"blchyn":1,"year":1998},{"rfid":19013.0,"subid":"S","name":"Salamander Reef","long":147.06,"lat":-19.18,"area":0.0000108,"perim":0.012013693,"bleach":1,"blchyn":1,"year":1998},{"rfid":19017.0,"subid":"S","name":"Bare Reef","long":147.07,"lat":-19.26,"area":0.00000502,"perim":0.010940458,"bleach":2,"blchyn":1,"year":1998},{"rfid":19019.0,"subid":"S","name":"Bowden Reef","long":147.93,"lat":-19.04,"area":0.000833679,"perim":0.115633608,"bleach":5,"blchyn":0,"year":1998},{"rfid":19024.0,"subid":"S","name":"Prawn Reef","long":148.11,"lat":-19.02,"area":0.001104778,"perim":0.177441981,"bleach":4,"blchyn":1,"year":1998},{"rfid":19025.0,"subid":"S","name":"Castor Reef","long":148.32,"lat":-19.02,"area":0.000342767,"perim":0.078073157,"bleach":5,"blchyn":0,"year":1998},{"rfid":19028.0,"subid":"S","name":"Shell Reef","long":148.18,"lat":-19.07,"area":0.000230338,"perim":0.063397121,"bleach":5,"blchyn":0,"year":1998},{"rfid":19029.0,"subid":"S","name":"Mid Reef","long":148.08,"lat":-19.07,"area":0.000574392,"perim":0.109428724,"bleach":5,"blchyn":0,"year":1998},{"rfid":19038.0,"subid":"B","name":"Dingo Reef (No 2)","long":148.38,"lat":-19.18,"area":0.005463285,"perim":0.339099709,"bleach":4,"blchyn":1,"year":1998},{"rfid":19038.0,"subid":"F","name":"Dingo Reef (No 6)","long":148.47,"lat":-19.13,"area":0.005823402,"perim":0.370591565,"bleach":5,"blchyn":0,"year":1998},{"rfid":19043.0,"subid":"S","name":"Darley Reef","long":148.17,"lat":-19.21,"area":0.00704592,"perim":0.531507066,"bleach":3,"blchyn":1,"year":1998},{"rfid":19044.0,"subid":"S","name":"Faith Reef","long":148.35,"lat":-19.28,"area":0.000316249,"perim":0.065194064,"bleach":4,"blchyn":1,"year":1998},{"rfid":19045.0,"subid":"S","name":"Stanley Reef","long":148.08,"lat":-19.3,"area":0.005027448,"perim":0.360639055,"bleach":5,"blchyn":0,"year":1998},{"rfid":19046.0,"subid":"S","name":"Hope Reef","long":148.43,"lat":-19.32,"area":0.000320724,"perim":0.068620413,"bleach":4,"blchyn":1,"year":1998},{"rfid":19047.0,"subid":"S","name":"Charity Reef","long":148.34,"lat":-19.37,"area":0.000348119,"perim":0.068368184,"bleach":4,"blchyn":1,"year":1998},{"rfid":19048.0,"subid":"S","name":"Old Reef","long":148.09,"lat":-19.39,"area":0.005617876,"perim":0.342607918,"bleach":5,"blchyn":0,"year":1998},{"rfid":19054.0,"subid":"S","name":"Tiger Reef","long":148.54,"lat":-19.21,"area":0.003718157,"perim":0.369369612,"bleach":4,"blchyn":1,"year":1998},{"rfid":19063.0,"subid":"A","name":"Kangaroo Reef (East)","long":148.63,"lat":-19.26,"area":0.006457828,"perim":0.479938146,"bleach":4,"blchyn":1,"year":1998},{"rfid":19063.0,"subid":"B","name":"Kangaroo Reef (West)","long":148.55,"lat":-19.26,"area":0.000204735,"perim":0.059250331,"bleach":5,"blchyn":0,"year":1998},{"rfid":19066.0,"subid":"S","name":"U\/N Reef","long":148.63,"lat":-19.34,"area":0.000126533,"perim":0.04744634,"bleach":3,"blchyn":1,"year":1998},{"rfid":19067.0,"subid":"S","name":"U\/N Reef","long":148.64,"lat":-19.36,"area":0.0000932,"perim":0.038440543,"bleach":3,"blchyn":1,"year":1998},{"rfid":19071.0,"subid":"S","name":"Wallaby Reef","long":148.66,"lat":-19.43,"area":0.003910275,"perim":0.271651076,"bleach":5,"blchyn":0,"year":1998},{"rfid":19072.0,"subid":"A","name":"Gould Reef (No 1)","long":148.78,"lat":-19.4,"area":0.003703965,"perim":0.387328816,"bleach":5,"blchyn":0,"year":1998},{"rfid":19072.0,"subid":"C","name":"Gould Reef (No 3)","long":148.74,"lat":-19.5,"area":0.002903907,"perim":0.227813776,"bleach":4,"blchyn":1,"year":1998},{"rfid":19072.0,"subid":"D","name":"Gould Reef (No 4)","long":148.78,"lat":-19.5,"area":0.002206854,"perim":0.188667251,"bleach":4,"blchyn":1,"year":1998},{"rfid":19074.0,"subid":"A","name":"Cobham Reef (North)","long":148.87,"lat":-19.4,"area":0.004647918,"perim":0.347933608,"bleach":5,"blchyn":0,"year":1998},{"rfid":19075.0,"subid":"S","name":"Martin Reef","long":148.82,"lat":-19.48,"area":0.000623728,"perim":0.105532951,"bleach":5,"blchyn":0,"year":1998},{"rfid":19076.0,"subid":"S","name":"Showers Reef","long":148.9,"lat":-19.49,"area":0.000725148,"perim":0.104802515,"bleach":5,"blchyn":0,"year":1998},{"rfid":19096.0,"subid":"S","name":"Kennedy Reef","long":149.17,"lat":-19.47,"area":0.00543807,"perim":0.384165605,"bleach":4,"blchyn":1,"year":1998},{"rfid":19100.0,"subid":"S","name":"White Topped Reef","long":147.75,"lat":-19.71,"area":0.00000858,"perim":0.012011171,"bleach":1,"blchyn":1,"year":1998},{"rfid":19101.0,"subid":"S","name":"U\/N Reef","long":147.76,"lat":-19.73,"area":0.0000239,"perim":0.021635157,"bleach":1,"blchyn":1,"year":1998},{"rfid":19101.0,"subid":"S","name":"U\/N Reef","long":147.76,"lat":-19.73,"area":0.0000239,"perim":0.021635157,"bleach":1,"blchyn":1,"year":1998},{"rfid":19102.0,"subid":"S","name":"Camp Reef","long":147.89,"lat":-19.86,"area":0.0000353,"perim":0.028934721,"bleach":1,"blchyn":1,"year":1998},{"rfid":19103.0,"subid":"S","name":"Holbourne Island Reef (No 1)","long":148.36,"lat":-19.73,"area":0.000019,"perim":0.025223454,"bleach":5,"blchyn":0,"year":1998},{"rfid":19103.0,"subid":"S","name":"Holbourne Island Reef (No 2)","long":148.36,"lat":-19.73,"area":0.00000598,"perim":0.016280629,"bleach":5,"blchyn":0,"year":1998},{"rfid":19105.0,"subid":"S","name":null,"long":148.27,"lat":-19.97,"area":null,"perim":null,"bleach":5,"blchyn":0,"year":1998},{"rfid":19106.0,"subid":"S","name":"Middle Island Reef","long":148.36,"lat":-19.98,"area":0.0000258,"perim":0.056285087,"bleach":1,"blchyn":1,"year":1998},{"rfid":19107.0,"subid":"S","name":"Seagull Reef","long":148.98,"lat":-19.53,"area":0.001262084,"perim":0.165066281,"bleach":5,"blchyn":0,"year":1998},{"rfid":19108.0,"subid":"S","name":"U\/N Reef","long":148.88,"lat":-19.53,"area":0.000127963,"perim":0.056751694,"bleach":5,"blchyn":0,"year":1998},{"rfid":19109.0,"subid":"A","name":"Fairey Reef (No 1)","long":148.94,"lat":-19.54,"area":0.00072599,"perim":0.112281619,"bleach":5,"blchyn":0,"year":1998},{"rfid":19109.0,"subid":"B","name":"Fairey Reef (No 2)","long":148.93,"lat":-19.56,"area":0.000196418,"perim":0.080595894,"bleach":5,"blchyn":0,"year":1998},{"rfid":19110.0,"subid":"S","name":"Rattray Reef","long":148.56,"lat":-20.0,"area":0.0000115,"perim":0.02223916,"bleach":2,"blchyn":1,"year":1998},{"rfid":19128.0,"subid":"S","name":"Line Reef","long":149.19,"lat":-19.69,"area":0.001877536,"perim":0.331208924,"bleach":5,"blchyn":0,"year":1998},{"rfid":19129.0,"subid":"S","name":"U\/N Reef","long":149.31,"lat":-19.75,"area":0.0000848,"perim":0.036284477,"bleach":5,"blchyn":0,"year":1998},{"rfid":19131.0,"subid":"S","name":"U\/N Reef","long":149.37,"lat":-19.76,"area":0.000399524,"perim":0.120984859,"bleach":5,"blchyn":0,"year":1998},{"rfid":19132.0,"subid":"S","name":"U\/N Reef","long":149.4,"lat":-19.76,"area":0.00000657,"perim":0.011247181,"bleach":5,"blchyn":0,"year":1998},{"rfid":19133.0,"subid":"S","name":"Sinker Reef","long":149.2,"lat":-19.72,"area":0.0000217,"perim":0.018893537,"bleach":5,"blchyn":0,"year":1998},{"rfid":19134.0,"subid":"S","name":"Circular Quay Reef","long":149.49,"lat":-19.75,"area":0.011773165,"perim":0.547701376,"bleach":5,"blchyn":0,"year":1998},{"rfid":19135.0,"subid":"S","name":"Hardy Reef","long":149.23,"lat":-19.76,"area":0.003728158,"perim":0.314866578,"bleach":5,"blchyn":0,"year":1998},{"rfid":19136.0,"subid":"A","name":"Hook Reef","long":149.2,"lat":-19.8,"area":0.004870702,"perim":0.461927395,"bleach":4,"blchyn":1,"year":1998},{"rfid":19136.0,"subid":"B","name":"Barb Reef","long":149.12,"lat":-19.82,"area":0.00013853,"perim":0.048699294,"bleach":4,"blchyn":1,"year":1998},{"rfid":19137.0,"subid":"S","name":"Bait Reef","long":149.07,"lat":-19.81,"area":0.000452395,"perim":0.085831602,"bleach":4,"blchyn":1,"year":1998},{"rfid":19197.0,"subid":"S","name":"Ross Reef","long":149.58,"lat":-19.88,"area":0.001097135,"perim":0.141932291,"bleach":5,"blchyn":0,"year":1998},{"rfid":19205.0,"subid":"A","name":"Tideway Reef (No 1)","long":149.72,"lat":-20.01,"area":0.001499437,"perim":0.156513534,"bleach":5,"blchyn":0,"year":1998},{"rfid":19980.0,"subid":"S","name":null,"long":148.61,"lat":-20.1,"area":null,"perim":null,"bleach":1,"blchyn":1,"year":1998},{"rfid":20001.0,"subid":"S","name":"U\/N Reef","long":148.27,"lat":-20.01,"area":0.0000287,"perim":0.037133268,"bleach":1,"blchyn":1,"year":1998},{"rfid":20002.0,"subid":"S","name":"North Head Reef","long":148.27,"lat":-20.02,"area":0.00000906,"perim":0.016175443,"bleach":1,"blchyn":1,"year":1998},{"rfid":20004.0,"subid":"S","name":"Stone Reef","long":148.28,"lat":-20.04,"area":0.0001306,"perim":0.105319108,"bleach":1,"blchyn":1,"year":1998},{"rfid":20010.0,"subid":"S","name":"Black Currant-Manta Ray Reef","long":148.49,"lat":-20.08,"area":0.000287643,"perim":0.181332547,"bleach":2,"blchyn":1,"year":1998},{"rfid":20010.0,"subid":"S","name":"Black Currant-Manta Ray Reef","long":148.49,"lat":-20.08,"area":0.000287643,"perim":0.181332547,"bleach":1,"blchyn":1,"year":1998},{"rfid":20010.0,"subid":"S","name":"Black Currant-Manta Ray Reef","long":148.49,"lat":-20.08,"area":0.000287643,"perim":0.181332547,"bleach":3,"blchyn":1,"year":1998},{"rfid":20012.0,"subid":"S","name":"Eshelby Reef","long":148.62,"lat":-20.02,"area":0.0000142,"perim":0.016249878,"bleach":2,"blchyn":1,"year":1998},{"rfid":20014.0,"subid":"S","name":"Hayman Island Reef","long":148.89,"lat":-20.07,"area":0.000280368,"perim":0.091708665,"bleach":2,"blchyn":1,"year":1998},{"rfid":20014.0,"subid":"S","name":"Hayman Island Reef","long":148.89,"lat":-20.07,"area":0.000280368,"perim":0.091708665,"bleach":2,"blchyn":1,"year":1998},{"rfid":20014.0,"subid":"S","name":"Hayman Island Reef","long":148.89,"lat":-20.07,"area":0.000280368,"perim":0.091708665,"bleach":2,"blchyn":1,"year":1998},{"rfid":20015.0,"subid":"S","name":null,"long":148.54,"lat":-20.07,"area":null,"perim":null,"bleach":1,"blchyn":1,"year":1998},{"rfid":20015.0,"subid":"S","name":null,"long":148.54,"lat":-20.07,"area":null,"perim":null,"bleach":2,"blchyn":1,"year":1998},{"rfid":20021.0,"subid":"S","name":"Olden Reef","long":148.57,"lat":-20.11,"area":0.0000318,"perim":0.028126148,"bleach":3,"blchyn":1,"year":1998},{"rfid":20022.0,"subid":"S","name":"Armit Island Reef","long":148.65,"lat":-20.11,"area":0.0000309,"perim":0.030370477,"bleach":2,"blchyn":1,"year":1998},{"rfid":20022.0,"subid":"S","name":"Armit Island Reef","long":148.65,"lat":-20.11,"area":0.0000309,"perim":0.030370477,"bleach":2,"blchyn":1,"year":1998},{"rfid":20027.0,"subid":"S","name":"U\/N Reef","long":148.61,"lat":-20.13,"area":0.0000219,"perim":0.024253954,"bleach":1,"blchyn":1,"year":1998},{"rfid":20028.0,"subid":"G","name":"Hook Island Reef (No 7)","long":148.93,"lat":-20.07,"area":0.0000889,"perim":0.081701394,"bleach":2,"blchyn":1,"year":1998},{"rfid":20028.0,"subid":"H","name":"Hook Island Reef (No 8)","long":148.95,"lat":-20.07,"area":0.000019,"perim":0.021769709,"bleach":2,"blchyn":1,"year":1998},{"rfid":20028.0,"subid":"S","name":null,"long":148.96,"lat":-20.08,"area":null,"perim":null,"bleach":4,"blchyn":1,"year":1998},{"rfid":20028.0,"subid":"S","name":null,"long":148.96,"lat":-20.07,"area":null,"perim":null,"bleach":3,"blchyn":1,"year":1998},{"rfid":20030.0,"subid":"S","name":"Grassy Reef","long":148.61,"lat":-20.15,"area":0.000045,"perim":0.032111501,"bleach":2,"blchyn":1,"year":1998},{"rfid":20033.0,"subid":"S","name":"North Molle Reef","long":148.81,"lat":-20.22,"area":0.0000214,"perim":0.022620175,"bleach":5,"blchyn":0,"year":1998},{"rfid":20034.0,"subid":"S","name":"Mid Molle Reef","long":148.83,"lat":-20.25,"area":0.0000168,"perim":0.035601291,"bleach":5,"blchyn":0,"year":1998},{"rfid":20035.0,"subid":"S","name":"Daydream Reef","long":148.81,"lat":-20.26,"area":0.0000257,"perim":0.030870861,"bleach":5,"blchyn":0,"year":1998},{"rfid":20042.0,"subid":"S","name":"South Molle Reef","long":148.84,"lat":-20.26,"area":0.0000517,"perim":0.040888366,"bleach":5,"blchyn":0,"year":1998},{"rfid":20053.0,"subid":"S","name":"Henning Reef","long":148.93,"lat":-20.32,"area":0.0000611,"perim":0.07358341,"bleach":5,"blchyn":0,"year":1998},{"rfid":20058.0,"subid":"S","name":"Dent Reef","long":148.93,"lat":-20.34,"area":0.000139932,"perim":0.113472814,"bleach":5,"blchyn":0,"year":1998},{"rfid":20059.0,"subid":"A","name":null,"long":148.97,"lat":-20.34,"area":null,"perim":null,"bleach":5,"blchyn":0,"year":1998},{"rfid":20059.0,"subid":"B","name":null,"long":148.96,"lat":-20.36,"area":null,"perim":null,"bleach":5,"blchyn":0,"year":1998},{"rfid":20059.0,"subid":"S","name":"U\/N Reef","long":148.96,"lat":-20.37,"area":0.0000054,"perim":0.013781132,"bleach":5,"blchyn":0,"year":1998},{"rfid":20067.0,"subid":"A","name":"Border Island Reef (No 1)","long":149.03,"lat":-20.17,"area":0.000105763,"perim":0.061168062,"bleach":4,"blchyn":1,"year":1998},{"rfid":20067.0,"subid":"C","name":"Border Island Reef (No 3)","long":149.03,"lat":-20.16,"area":0.000028,"perim":0.022307035,"bleach":3,"blchyn":1,"year":1998},{"rfid":20068.0,"subid":"S","name":"Dumbell Reef","long":149.01,"lat":-20.17,"area":0.0000102,"perim":0.013531173,"bleach":4,"blchyn":1,"year":1998},{"rfid":20069.0,"subid":"S","name":"Petrel Reef","long":149.11,"lat":-20.2,"area":0.00000599,"perim":0.013043627,"bleach":2,"blchyn":1,"year":1998},{"rfid":20071.0,"subid":"S","name":"Ireby Reef","long":149.15,"lat":-20.23,"area":0.00000954,"perim":0.02044922,"bleach":3,"blchyn":1,"year":1998},{"rfid":20072.0,"subid":"S","name":"Sillago Reef","long":149.16,"lat":-20.24,"area":0.0000105,"perim":0.022440323,"bleach":5,"blchyn":0,"year":1998},{"rfid":20074.0,"subid":"S","name":"Harold Reef","long":149.15,"lat":-20.24,"area":0.0000283,"perim":0.022185754,"bleach":5,"blchyn":0,"year":1998},{"rfid":20075.0,"subid":"S","name":"Edward Island Reef","long":149.18,"lat":-20.25,"area":0.0000348,"perim":0.073706756,"bleach":5,"blchyn":0,"year":1998},{"rfid":20078.0,"subid":"E","name":"Haslewood Island Reef (No 5)","long":149.1,"lat":-20.28,"area":0.000203565,"perim":0.086981652,"bleach":5,"blchyn":0,"year":1998},{"rfid":20078.0,"subid":"F","name":"Lupton Reef","long":149.11,"lat":-20.28,"area":0.0000263,"perim":0.031564281,"bleach":5,"blchyn":0,"year":1998},{"rfid":20078.0,"subid":"G","name":"Cashell Reef","long":149.11,"lat":-20.26,"area":0.000038,"perim":0.025807155,"bleach":5,"blchyn":0,"year":1998},{"rfid":20081.0,"subid":"S","name":"Nicolson Reef","long":149.1,"lat":-20.31,"area":0.0000175,"perim":0.037369257,"bleach":5,"blchyn":0,"year":1998},{"rfid":20089.0,"subid":"S","name":"Deloraine Reef","long":149.07,"lat":-20.16,"area":0.0000482,"perim":0.040166215,"bleach":4,"blchyn":1,"year":1998},{"rfid":20093.0,"subid":"S","name":"Comston Reef","long":149.1,"lat":-20.46,"area":0.0000218,"perim":0.020401177,"bleach":5,"blchyn":0,"year":1998},{"rfid":20095.0,"subid":"B","name":null,"long":149.05,"lat":-20.48,"area":null,"perim":null,"bleach":5,"blchyn":0,"year":1998},{"rfid":20095.0,"subid":"C","name":null,"long":149.03,"lat":-20.44,"area":null,"perim":null,"bleach":5,"blchyn":0,"year":1998},{"rfid":20099.0,"subid":"S","name":"Little Lindeman Reef","long":149.03,"lat":-20.42,"area":0.0000285,"perim":0.028073231,"bleach":5,"blchyn":0,"year":1998},{"rfid":20101.0,"subid":"S","name":null,"long":149.06,"lat":-20.48,"area":null,"perim":null,"bleach":5,"blchyn":0,"year":1998},{"rfid":20102.0,"subid":"A","name":"Shaw Island Reef (No 1)","long":149.08,"lat":-20.43,"area":0.0000383,"perim":0.042148066,"bleach":5,"blchyn":0,"year":1998},{"rfid":20102.0,"subid":"B","name":"Shaw Island Reef (No 2)","long":149.08,"lat":-20.46,"area":0.0000204,"perim":0.016888721,"bleach":5,"blchyn":0,"year":1998},{"rfid":20102.0,"subid":"D","name":"Shaw Island Reef (No 4)","long":149.05,"lat":-20.51,"area":0.000471808,"perim":0.184974534,"bleach":5,"blchyn":0,"year":1998},{"rfid":20102.0,"subid":"D","name":"Shaw Island Reef (No 4)","long":149.05,"lat":-20.51,"area":0.000471808,"perim":0.184974534,"bleach":5,"blchyn":0,"year":1998},{"rfid":20112.0,"subid":"S","name":"Edgell Reefs (No 5)","long":149.94,"lat":-20.13,"area":0.00112493,"perim":0.209111986,"bleach":5,"blchyn":0,"year":1998},{"rfid":20128.0,"subid":"S","name":"Edgell Reefs (No 4)","long":150.01,"lat":-20.12,"area":0.001586397,"perim":0.320609113,"bleach":5,"blchyn":0,"year":1998},{"rfid":20129.0,"subid":"S","name":"Henderson Reefs","long":150.08,"lat":-20.19,"area":0.007880965,"perim":0.700195058,"bleach":5,"blchyn":0,"year":1998},{"rfid":20134.0,"subid":"S","name":"Hunt Reef","long":150.1,"lat":-20.3,"area":0.00281414,"perim":0.272075771,"bleach":5,"blchyn":0,"year":1998},{"rfid":20135.0,"subid":"S","name":"Robertson Reefs (No 1)","long":150.13,"lat":-20.34,"area":0.000584595,"perim":0.094846753,"bleach":5,"blchyn":0,"year":1998},{"rfid":20136.0,"subid":"S","name":"Robertson Reefs (No 2)","long":150.07,"lat":-20.35,"area":0.000431057,"perim":0.087802184,"bleach":5,"blchyn":0,"year":1998},{"rfid":20137.0,"subid":"S","name":"Robertson Reefs (No 3)","long":150.1,"lat":-20.35,"area":0.000258024,"perim":0.064037511,"bleach":5,"blchyn":0,"year":1998},{"rfid":20138.0,"subid":"S","name":"Bax Reef","long":150.2,"lat":-20.35,"area":0.004831311,"perim":0.334979479,"bleach":5,"blchyn":0,"year":1998},{"rfid":20142.0,"subid":"S","name":"U\/N Reef","long":150.24,"lat":-20.4,"area":0.000151281,"perim":0.047850945,"bleach":5,"blchyn":0,"year":1998},{"rfid":20143.0,"subid":"S","name":"U\/N Reef","long":150.24,"lat":-20.45,"area":0.000076,"perim":0.038689188,"bleach":5,"blchyn":0,"year":1998},{"rfid":20146.0,"subid":"S","name":"Boulton Reef","long":150.29,"lat":-20.47,"area":0.001607079,"perim":0.189476131,"bleach":5,"blchyn":0,"year":1998},{"rfid":20234.0,"subid":"S","name":"Thomas Reef","long":149.11,"lat":-20.54,"area":0.000173979,"perim":0.090658894,"bleach":5,"blchyn":0,"year":1998},{"rfid":20234.0,"subid":"S","name":"Thomas Reef","long":149.11,"lat":-20.54,"area":0.000173979,"perim":0.090658894,"bleach":5,"blchyn":0,"year":1998},{"rfid":20237.0,"subid":"A","name":"Goldsmith Island Reef (No 1)","long":149.16,"lat":-20.67,"area":0.0000678,"perim":0.059463852,"bleach":5,"blchyn":0,"year":1998},{"rfid":20237.0,"subid":"B","name":"Goldsmith Island Reef (No 2)","long":149.14,"lat":-20.69,"area":0.0000682,"perim":0.046479133,"bleach":5,"blchyn":0,"year":1998},{"rfid":20239.0,"subid":"S","name":"Pincer Reef","long":149.1,"lat":-20.68,"area":0.00000816,"perim":0.017358525,"bleach":3,"blchyn":1,"year":1998},{"rfid":20241.0,"subid":"S","name":"Anchorsmith Reef","long":149.07,"lat":-20.62,"area":0.0000139,"perim":0.03001945,"bleach":2,"blchyn":1,"year":1998},{"rfid":20246.0,"subid":"S","name":"Hammer Reef","long":149.05,"lat":-20.64,"area":0.0000376,"perim":0.080025989,"bleach":3,"blchyn":1,"year":1998},{"rfid":20247.0,"subid":"S","name":"Ladysmith Reef","long":149.08,"lat":-20.65,"area":0.0000404,"perim":0.088643583,"bleach":4,"blchyn":1,"year":1998},{"rfid":20248.0,"subid":"S","name":"Locksmith Reef","long":149.15,"lat":-20.66,"area":0.00000576,"perim":0.011284053,"bleach":4,"blchyn":1,"year":1998},{"rfid":20254.0,"subid":"S","name":"Tinsmith Reef","long":149.2,"lat":-20.7,"area":0.0000611,"perim":0.069575769,"bleach":4,"blchyn":1,"year":1998},{"rfid":20255.0,"subid":"S","name":"Solder Reef","long":149.21,"lat":-20.7,"area":0.00000752,"perim":0.018772475,"bleach":3,"blchyn":1,"year":1998},{"rfid":20262.0,"subid":"B","name":"Wigton Island Reef (No 2)","long":149.48,"lat":-20.74,"area":0.0000222,"perim":0.020274515,"bleach":4,"blchyn":1,"year":1998},{"rfid":20263.0,"subid":"S","name":"Silloth Reef","long":149.43,"lat":-20.77,"area":0.0000612,"perim":0.047143147,"bleach":4,"blchyn":1,"year":1998},{"rfid":20266.0,"subid":"S","name":"Mayport Reef","long":149.28,"lat":-20.76,"area":0.00000876,"perim":0.01860675,"bleach":2,"blchyn":1,"year":1998},{"rfid":20269.0,"subid":"S","name":"Cockermouth Reef","long":149.39,"lat":-20.78,"area":0.000162621,"perim":0.082732676,"bleach":4,"blchyn":1,"year":1998},{"rfid":20270.0,"subid":"A","name":"Carlisle Reef","long":149.28,"lat":-20.8,"area":0.000201472,"perim":0.106847017,"bleach":3,"blchyn":1,"year":1998},{"rfid":20270.0,"subid":"B","name":"Brampton Reef","long":149.27,"lat":-20.82,"area":0.000278486,"perim":0.156028511,"bleach":3,"blchyn":1,"year":1998},{"rfid":20277.0,"subid":"A","name":"Keswick Island Reef (No 1)","long":149.39,"lat":-20.91,"area":0.0000511,"perim":0.032576547,"bleach":4,"blchyn":1,"year":1998},{"rfid":20279.0,"subid":"A","name":"St Bees Island Reef (No 1)","long":149.44,"lat":-20.91,"area":0.0000303,"perim":0.026895657,"bleach":4,"blchyn":1,"year":1998},{"rfid":20279.0,"subid":"B","name":"St Bees Island Reef (No 2)","long":149.43,"lat":-20.93,"area":0.0000369,"perim":0.027957992,"bleach":5,"blchyn":0,"year":1998},{"rfid":20287.0,"subid":"S","name":"Credlin Reefs (East)","long":149.95,"lat":-20.54,"area":0.000914605,"perim":0.111456294,"bleach":5,"blchyn":0,"year":1998},{"rfid":20288.0,"subid":"S","name":"Credlin Reefs (West)","long":149.93,"lat":-20.56,"area":0.000351185,"perim":0.069830716,"bleach":5,"blchyn":0,"year":1998},{"rfid":20289.0,"subid":"S","name":"Calder Reef","long":149.61,"lat":-20.77,"area":0.0000581,"perim":0.123204542,"bleach":4,"blchyn":1,"year":1998},{"rfid":20290.0,"subid":"S","name":"Scawfell Reef","long":149.6,"lat":-20.87,"area":0.000164096,"perim":0.351358006,"bleach":5,"blchyn":0,"year":1998},{"rfid":20291.0,"subid":"S","name":"Three Rocks Reef","long":149.74,"lat":-20.95,"area":0.0000134,"perim":0.039658147,"bleach":5,"blchyn":0,"year":1998},{"rfid":20292.0,"subid":"S","name":"Derwent Reef","long":149.78,"lat":-20.99,"area":0.0000452,"perim":0.099020717,"bleach":5,"blchyn":0,"year":1998},{"rfid":20294.0,"subid":"S","name":"(Little) Stevens Reef","long":150.05,"lat":-20.57,"area":0.002894768,"perim":0.250669821,"bleach":5,"blchyn":0,"year":1998},{"rfid":20295.0,"subid":"S","name":"(Big) Stevens Reef","long":150.13,"lat":-20.57,"area":0.004037547,"perim":0.281633485,"bleach":5,"blchyn":0,"year":1998},{"rfid":20296.0,"subid":"S","name":"Liff Reef","long":150.24,"lat":-20.52,"area":0.0002255,"perim":0.054972295,"bleach":5,"blchyn":0,"year":1998},{"rfid":20297.0,"subid":"S","name":"Creal Reef","long":150.38,"lat":-20.54,"area":0.0000918,"perim":0.039182221,"bleach":5,"blchyn":0,"year":1998},{"rfid":20298.0,"subid":"S","name":"Warland Reef","long":150.38,"lat":-20.6,"area":0.000790589,"perim":0.227644053,"bleach":5,"blchyn":0,"year":1998},{"rfid":20299.0,"subid":"C","name":"Southampton Reef","long":150.46,"lat":-20.65,"area":0.001773289,"perim":0.264375468,"bleach":5,"blchyn":0,"year":1998},{"rfid":20299.0,"subid":"C","name":"Briggs Reef (No 3)","long":150.46,"lat":-20.65,"area":0.00000195,"perim":0.005372966,"bleach":5,"blchyn":0,"year":1998},{"rfid":20301.0,"subid":"A","name":"Cole Reefs (No2)","long":150.23,"lat":-20.68,"area":0.000492937,"perim":0.091220885,"bleach":5,"blchyn":0,"year":1998},{"rfid":20301.0,"subid":"B","name":"Cole Reefs (No3)","long":150.29,"lat":-20.66,"area":0.000471605,"perim":0.084724216,"bleach":5,"blchyn":0,"year":1998},{"rfid":20302.0,"subid":"S","name":"Cole Reefs (No1)","long":150.18,"lat":-20.7,"area":0.000300748,"perim":0.073685757,"bleach":5,"blchyn":0,"year":1998},{"rfid":20304.0,"subid":"S","name":"McIntyre Reef","long":150.47,"lat":-20.72,"area":0.000342148,"perim":0.078005006,"bleach":5,"blchyn":0,"year":1998},{"rfid":20309.0,"subid":"S","name":"Tern Reef","long":150.03,"lat":-20.91,"area":0.00019512,"perim":0.078038559,"bleach":4,"blchyn":1,"year":1998},{"rfid":20310.0,"subid":"S","name":"Bushy-Redbill Reef","long":150.08,"lat":-20.96,"area":0.000728437,"perim":0.120323382,"bleach":5,"blchyn":0,"year":1998},{"rfid":20351.0,"subid":"A","name":"Pompey Reef (No 1)","long":150.54,"lat":-20.94,"area":0.001183974,"perim":0.149630271,"bleach":5,"blchyn":0,"year":1998},{"rfid":20351.0,"subid":"B","name":"Pompey Reef (No 2)","long":150.53,"lat":-20.98,"area":0.000939521,"perim":0.140085405,"bleach":5,"blchyn":0,"year":1998},{"rfid":20352.0,"subid":"S","name":"U\/N Reef","long":150.66,"lat":-20.95,"area":0.001440318,"perim":0.145341399,"bleach":5,"blchyn":0,"year":1998},{"rfid":20369.0,"subid":"S","name":null,"long":151.02,"lat":-20.75,"area":null,"perim":null,"bleach":5,"blchyn":0,"year":1998},{"rfid":20371.0,"subid":"S","name":"U\/N Reef","long":151.09,"lat":-20.81,"area":0.000754976,"perim":0.161487763,"bleach":5,"blchyn":0,"year":1998},{"rfid":20374.0,"subid":"S","name":"U\/N Reef","long":151.16,"lat":-20.8,"area":0.00696615,"perim":0.586820843,"bleach":5,"blchyn":0,"year":1998},{"rfid":20378.0,"subid":"A","name":"U\/N Reef","long":151.25,"lat":-20.87,"area":0.0010058,"perim":0.16995676,"bleach":5,"blchyn":0,"year":1998},{"rfid":20378.0,"subid":"B","name":"U\/N Reef","long":151.24,"lat":-20.93,"area":0.001177485,"perim":0.198574443,"bleach":5,"blchyn":0,"year":1998},{"rfid":20382.0,"subid":"S","name":"U\/N Reef","long":151.3,"lat":-20.86,"area":0.000674846,"perim":0.309899563,"bleach":5,"blchyn":0,"year":1998},{"rfid":20382.0,"subid":"S","name":"U\/N Reef","long":151.3,"lat":-20.86,"area":0.003359267,"perim":0.287400658,"bleach":5,"blchyn":0,"year":1998},{"rfid":20382.0,"subid":"S","name":"U\/N Reef","long":151.3,"lat":-20.86,"area":0.000192591,"perim":0.072307721,"bleach":5,"blchyn":0,"year":1998},{"rfid":20385.0,"subid":"S","name":"U\/N Reef","long":151.32,"lat":-20.94,"area":0.00256176,"perim":0.295711602,"bleach":5,"blchyn":0,"year":1998},{"rfid":20387.0,"subid":"S","name":"U\/N Reef","long":151.25,"lat":-20.97,"area":0.000270012,"perim":0.063872077,"bleach":5,"blchyn":0,"year":1998},{"rfid":20388.0,"subid":"A","name":"U\/N Reef","long":151.36,"lat":-20.96,"area":0.00029693,"perim":0.087866028,"bleach":5,"blchyn":0,"year":1998},{"rfid":20389.0,"subid":"S","name":"U\/N Reef","long":151.4,"lat":-20.97,"area":0.008992537,"perim":0.580513013,"bleach":5,"blchyn":0,"year":1998},{"rfid":21025.0,"subid":"S","name":"Penrith Reef","long":149.9,"lat":-21.02,"area":0.000356805,"perim":0.173338538,"bleach":5,"blchyn":0,"year":1998},{"rfid":21026.0,"subid":"S","name":"Bailey Reef","long":149.55,"lat":-21.03,"area":0.0000132,"perim":0.028219069,"bleach":4,"blchyn":1,"year":1998},{"rfid":21031.0,"subid":"S","name":"Prudhoe Island Reef","long":149.69,"lat":-21.33,"area":0.0000899,"perim":0.195039994,"bleach":2,"blchyn":1,"year":1998},{"rfid":21034.0,"subid":"S","name":"Double Island Reef","long":149.83,"lat":-21.37,"area":0.0000583,"perim":0.123647749,"bleach":2,"blchyn":1,"year":1998},{"rfid":21037.0,"subid":"S","name":"Renou Reef","long":149.82,"lat":-21.43,"area":0.00000856,"perim":0.018161754,"bleach":2,"blchyn":1,"year":1998},{"rfid":21039.0,"subid":"S","name":"Knight Reef","long":149.71,"lat":-21.45,"area":0.0000576,"perim":0.122598905,"bleach":2,"blchyn":1,"year":1998},{"rfid":21040.0,"subid":"S","name":"Minster Reef","long":149.83,"lat":-21.44,"area":0.0000398,"perim":0.086578772,"bleach":1,"blchyn":1,"year":1998},{"rfid":21044.0,"subid":"S","name":"Beverlac Reef","long":149.87,"lat":-21.46,"area":0.0000212,"perim":0.045159348,"bleach":1,"blchyn":1,"year":1998},{"rfid":21045.0,"subid":"S","name":"Hull Reef","long":149.88,"lat":-21.47,"area":0.0000296,"perim":0.064078473,"bleach":2,"blchyn":1,"year":1998},{"rfid":21048.0,"subid":"S","name":"Henderson Reef","long":149.91,"lat":-21.48,"area":0.0000252,"perim":0.053405468,"bleach":1,"blchyn":1,"year":1998},{"rfid":21050.0,"subid":"S","name":"Noel Reef","long":149.88,"lat":-21.49,"area":0.0000498,"perim":0.105281544,"bleach":1,"blchyn":1,"year":1998},{"rfid":21052.0,"subid":"S","name":"Digby Reef","long":149.91,"lat":-21.5,"area":0.0000523,"perim":0.11120822,"bleach":1,"blchyn":1,"year":1998},{"rfid":21053.0,"subid":"S","name":"Sandpiper Reef","long":150.08,"lat":-21.03,"area":0.0000907,"perim":0.039360571,"bleach":5,"blchyn":0,"year":1998},{"rfid":21054.0,"subid":"S","name":"Prince Reef","long":150.26,"lat":-21.07,"area":0.0000433,"perim":0.024361799,"bleach":5,"blchyn":0,"year":1998},{"rfid":21056.0,"subid":"A","name":"U\/N Reef","long":150.51,"lat":-21.05,"area":0.000074,"perim":0.033958295,"bleach":5,"blchyn":0,"year":1998},{"rfid":21056.0,"subid":"B","name":"U\/N Reef","long":150.45,"lat":-21.08,"area":0.003198902,"perim":0.275918902,"bleach":5,"blchyn":0,"year":1998},{"rfid":21057.0,"subid":"S","name":"U\/N Reef","long":150.48,"lat":-21.13,"area":0.00365021,"perim":0.247408563,"bleach":5,"blchyn":0,"year":1998},{"rfid":21059.0,"subid":"S","name":"Hotspur Islets Reef","long":149.26,"lat":-21.48,"area":0.0000824,"perim":0.168632402,"bleach":2,"blchyn":1,"year":1998},{"rfid":21063.0,"subid":"S","name":"U\/N Reef","long":150.92,"lat":-21.03,"area":0.0000747,"perim":0.038680238,"bleach":5,"blchyn":0,"year":1998},{"rfid":21091.0,"subid":"S","name":"U\/N Reef","long":151.56,"lat":-21.04,"area":0.0000702,"perim":0.040048813,"bleach":5,"blchyn":0,"year":1998},{"rfid":21109.0,"subid":"S","name":"U\/N Reef","long":151.08,"lat":-21.13,"area":0.0000762,"perim":0.07101099,"bleach":5,"blchyn":0,"year":1998},{"rfid":21115.0,"subid":"S","name":"U\/N Reef","long":151.04,"lat":-21.17,"area":0.000340126,"perim":0.165548149,"bleach":5,"blchyn":0,"year":1998},{"rfid":21116.0,"subid":"S","name":"U\/N Reef","long":151.01,"lat":-21.21,"area":0.0000636,"perim":0.03714243,"bleach":5,"blchyn":0,"year":1998},{"rfid":21124.0,"subid":"S","name":"U\/N Reef","long":151.13,"lat":-21.26,"area":0.000254935,"perim":0.107887456,"bleach":5,"blchyn":0,"year":1998},{"rfid":21128.0,"subid":"S","name":"Storm Reef","long":151.17,"lat":-21.32,"area":0.003821176,"perim":0.294165343,"bleach":5,"blchyn":0,"year":1998},{"rfid":21130.0,"subid":"S","name":"U\/N Reef","long":151.28,"lat":-21.34,"area":0.002155783,"perim":0.195097427,"bleach":5,"blchyn":0,"year":1998},{"rfid":21131.0,"subid":"S","name":"U\/N Reef","long":151.37,"lat":-21.37,"area":0.001233447,"perim":0.148124309,"bleach":5,"blchyn":0,"year":1998},{"rfid":21132.0,"subid":"S","name":"U\/N Reef","long":151.33,"lat":-21.4,"area":0.001265201,"perim":0.146136294,"bleach":5,"blchyn":0,"year":1998},{"rfid":21133.0,"subid":"S","name":"U\/N Reef","long":151.25,"lat":-21.38,"area":0.000179782,"perim":0.138228115,"bleach":5,"blchyn":0,"year":1998},{"rfid":21134.0,"subid":"S","name":"U\/N Reef","long":151.28,"lat":-21.39,"area":0.000152018,"perim":0.05122764,"bleach":5,"blchyn":0,"year":1998},{"rfid":21136.0,"subid":"S","name":"U\/N Reef","long":151.42,"lat":-21.39,"area":0.0000479,"perim":0.029989166,"bleach":5,"blchyn":0,"year":1998},{"rfid":21137.0,"subid":"S","name":"U\/N Reef","long":151.42,"lat":-21.4,"area":0.000123093,"perim":0.04158339,"bleach":5,"blchyn":0,"year":1998},{"rfid":21138.0,"subid":"S","name":"U\/N Reef","long":151.42,"lat":-21.43,"area":0.0000572,"perim":0.032794225,"bleach":5,"blchyn":0,"year":1998},{"rfid":21144.0,"subid":"S","name":"U\/N Reef","long":151.58,"lat":-21.05,"area":0.000284013,"perim":0.088432847,"bleach":5,"blchyn":0,"year":1998},{"rfid":21146.0,"subid":"S","name":"U\/N Reef","long":151.65,"lat":-21.08,"area":0.000323035,"perim":0.093271593,"bleach":5,"blchyn":0,"year":1998},{"rfid":21147.0,"subid":"S","name":"U\/N Reef","long":151.67,"lat":-21.07,"area":0.00092855,"perim":0.147033108,"bleach":5,"blchyn":0,"year":1998},{"rfid":21148.0,"subid":"S","name":"U\/N Reef","long":151.69,"lat":-21.09,"area":0.000773052,"perim":0.162152977,"bleach":5,"blchyn":0,"year":1998},{"rfid":21149.0,"subid":"S","name":"U\/N Reef","long":151.72,"lat":-21.1,"area":0.000785922,"perim":0.113929614,"bleach":5,"blchyn":0,"year":1998},{"rfid":21150.0,"subid":"S","name":"U\/N Reef","long":151.74,"lat":-21.11,"area":0.000220952,"perim":0.062488938,"bleach":5,"blchyn":0,"year":1998},{"rfid":21151.0,"subid":"S","name":"U\/N Reef","long":151.76,"lat":-21.12,"area":0.000470344,"perim":0.09141571,"bleach":5,"blchyn":0,"year":1998},{"rfid":21152.0,"subid":"S","name":"U\/N Reef","long":151.77,"lat":-21.12,"area":0.000173917,"perim":0.061537989,"bleach":5,"blchyn":0,"year":1998},{"rfid":21157.0,"subid":"S","name":"U\/N Reef","long":151.76,"lat":-21.15,"area":0.00068277,"perim":0.167776692,"bleach":5,"blchyn":0,"year":1998},{"rfid":21158.0,"subid":"S","name":"U\/N Reef","long":151.78,"lat":-21.16,"area":0.000501059,"perim":0.140706955,"bleach":5,"blchyn":0,"year":1998},{"rfid":21159.0,"subid":"S","name":"U\/N Reef","long":151.8,"lat":-21.17,"area":0.000353402,"perim":0.095186717,"bleach":5,"blchyn":0,"year":1998},{"rfid":21161.0,"subid":"S","name":"U\/N Reef","long":151.82,"lat":-21.19,"area":0.000365464,"perim":0.078110464,"bleach":5,"blchyn":0,"year":1998},{"rfid":21165.0,"subid":"S","name":"U\/N Reef","long":151.83,"lat":-21.2,"area":0.0000921,"perim":0.036649276,"bleach":5,"blchyn":0,"year":1998},{"rfid":21166.0,"subid":"S","name":"Twin Cays Reef (North)","long":151.99,"lat":-21.21,"area":0.00000845,"perim":0.015828273,"bleach":5,"blchyn":0,"year":1998},{"rfid":21168.0,"subid":"S","name":"Twin Cays Reef (South)","long":151.99,"lat":-21.23,"area":0.000041,"perim":0.032753722,"bleach":5,"blchyn":0,"year":1998},{"rfid":21172.0,"subid":"S","name":"Riptide Reef","long":151.85,"lat":-21.24,"area":0.0000802,"perim":0.041824153,"bleach":5,"blchyn":0,"year":1998},{"rfid":21198.0,"subid":"S","name":"U\/N Reef","long":152.21,"lat":-21.05,"area":0.00016893,"perim":0.053449967,"bleach":5,"blchyn":0,"year":1998},{"rfid":21199.0,"subid":"S","name":"U\/N Reef","long":152.19,"lat":-21.07,"area":0.00000899,"perim":0.012346883,"bleach":5,"blchyn":0,"year":1998},{"rfid":21200.0,"subid":"S","name":"U\/N Reef","long":152.23,"lat":-21.07,"area":0.00022938,"perim":0.0673115,"bleach":5,"blchyn":0,"year":1998},{"rfid":21201.0,"subid":"S","name":"U\/N Reef","long":152.46,"lat":-21.07,"area":0.0000247,"perim":0.022453592,"bleach":5,"blchyn":0,"year":1998},{"rfid":21203.0,"subid":"S","name":"U\/N Reef","long":152.24,"lat":-21.09,"area":0.0000517,"perim":0.030359415,"bleach":5,"blchyn":0,"year":1998},{"rfid":21204.0,"subid":"S","name":"U\/N Reef","long":152.28,"lat":-21.09,"area":0.0000537,"perim":0.034091899,"bleach":5,"blchyn":0,"year":1998},{"rfid":21205.0,"subid":"S","name":"U\/N Reef","long":152.5,"lat":-21.09,"area":0.0000504,"perim":0.028740683,"bleach":5,"blchyn":0,"year":1998},{"rfid":21206.0,"subid":"S","name":"U\/N Reef","long":152.49,"lat":-21.1,"area":0.0000671,"perim":0.04324548,"bleach":5,"blchyn":0,"year":1998},{"rfid":21207.0,"subid":"S","name":"U\/N Reef","long":152.14,"lat":-21.09,"area":0.0000396,"perim":0.037065352,"bleach":5,"blchyn":0,"year":1998},{"rfid":21208.0,"subid":"S","name":"U\/N Reef","long":152.17,"lat":-21.1,"area":0.0000176,"perim":0.026836356,"bleach":5,"blchyn":0,"year":1998},{"rfid":21209.0,"subid":"S","name":"U\/N Reef","long":152.26,"lat":-21.1,"area":0.00010863,"perim":0.049390951,"bleach":5,"blchyn":0,"year":1998},{"rfid":21210.0,"subid":"S","name":"U\/N Reef","long":152.31,"lat":-21.11,"area":0.0000129,"perim":0.01324493,"bleach":5,"blchyn":0,"year":1998},{"rfid":21211.0,"subid":"S","name":"U\/N Reef","long":152.35,"lat":-21.1,"area":0.0000485,"perim":0.036351081,"bleach":5,"blchyn":0,"year":1998},{"rfid":21212.0,"subid":"S","name":"U\/N Reef","long":152.16,"lat":-21.1,"area":0.0000164,"perim":0.021919358,"bleach":5,"blchyn":0,"year":1998},{"rfid":21213.0,"subid":"S","name":"U\/N Reef","long":152.2,"lat":-21.1,"area":0.0000479,"perim":0.026835804,"bleach":5,"blchyn":0,"year":1998},{"rfid":21214.0,"subid":"S","name":null,"long":152.08,"lat":-21.11,"area":null,"perim":null,"bleach":5,"blchyn":0,"year":1998},{"rfid":21215.0,"subid":"S","name":"U\/N Reef","long":152.32,"lat":-21.12,"area":0.0000338,"perim":0.030012454,"bleach":5,"blchyn":0,"year":1998},{"rfid":21216.0,"subid":"S","name":"U\/N Reef","long":152.39,"lat":-21.12,"area":0.00000884,"perim":0.011118043,"bleach":5,"blchyn":0,"year":1998},{"rfid":21217.0,"subid":"S","name":"U\/N Reef","long":152.47,"lat":-21.13,"area":0.0000349,"perim":0.023073143,"bleach":5,"blchyn":0,"year":1998},{"rfid":21218.0,"subid":"S","name":"U\/N Reef","long":152.49,"lat":-21.14,"area":0.0000308,"perim":0.021906903,"bleach":5,"blchyn":0,"year":1998},{"rfid":21219.0,"subid":"S","name":"U\/N Reef","long":152.19,"lat":-21.14,"area":0.0000416,"perim":0.026842302,"bleach":5,"blchyn":0,"year":1998},{"rfid":21222.0,"subid":"S","name":"U\/N Reef","long":152.31,"lat":-21.16,"area":0.0000324,"perim":0.024645021,"bleach":5,"blchyn":0,"year":1998},{"rfid":21225.0,"subid":"S","name":"U\/N Reef","long":152.1,"lat":-21.2,"area":0.0000386,"perim":0.025039219,"bleach":5,"blchyn":0,"year":1998},{"rfid":21235.0,"subid":"S","name":"Lavers Reef","long":152.01,"lat":-21.22,"area":0.000265352,"perim":0.129121004,"bleach":5,"blchyn":0,"year":1998},{"rfid":21238.0,"subid":"S","name":"U\/N Reef","long":152.5,"lat":-21.23,"area":0.000760574,"perim":0.230060056,"bleach":5,"blchyn":0,"year":1998},{"rfid":21246.0,"subid":"S","name":"U\/N Reef","long":152.49,"lat":-21.32,"area":0.0000169,"perim":0.023442599,"bleach":5,"blchyn":0,"year":1998},{"rfid":21252.0,"subid":"S","name":"U\/N Reef","long":152.25,"lat":-21.35,"area":0.0000228,"perim":0.020638622,"bleach":5,"blchyn":0,"year":1998},{"rfid":21256.0,"subid":"S","name":"U\/N Reef","long":152.48,"lat":-21.36,"area":0.000611573,"perim":0.122598135,"bleach":5,"blchyn":0,"year":1998},{"rfid":21263.0,"subid":"S","name":"U\/N Reef","long":152.49,"lat":-21.42,"area":0.000301839,"perim":0.076258152,"bleach":5,"blchyn":0,"year":1998},{"rfid":21283.0,"subid":"S","name":"U\/N Reef","long":152.5,"lat":-21.14,"area":0.0000352,"perim":0.029068276,"bleach":5,"blchyn":0,"year":1998},{"rfid":21286.0,"subid":"S","name":"U\/N Reef","long":152.52,"lat":-21.18,"area":0.000265465,"perim":0.066356878,"bleach":5,"blchyn":0,"year":1998},{"rfid":21290.0,"subid":"S","name":"U\/N Reef","long":152.52,"lat":-21.2,"area":0.000350772,"perim":0.077014356,"bleach":5,"blchyn":0,"year":1998},{"rfid":21297.0,"subid":"S","name":"U\/N Reef","long":152.52,"lat":-21.36,"area":0.000289305,"perim":0.095042683,"bleach":5,"blchyn":0,"year":1998},{"rfid":21299.0,"subid":"S","name":"U\/N Reef","long":152.53,"lat":-21.38,"area":0.000492431,"perim":0.092165057,"bleach":5,"blchyn":0,"year":1998},{"rfid":21300.0,"subid":"S","name":null,"long":152.51,"lat":-21.4,"area":null,"perim":null,"bleach":5,"blchyn":0,"year":1998},{"rfid":21303.0,"subid":"S","name":"U\/N Reef","long":152.52,"lat":-21.47,"area":0.000113298,"perim":0.049703761,"bleach":5,"blchyn":0,"year":1998},{"rfid":21305.0,"subid":"S","name":"East Cay Reef","long":152.56,"lat":-21.49,"area":0.000504163,"perim":0.099240844,"bleach":5,"blchyn":0,"year":1998},{"rfid":21334.0,"subid":"S","name":"Curlew Reef","long":149.78,"lat":-21.61,"area":0.0000491,"perim":0.042514303,"bleach":3,"blchyn":1,"year":1998},{"rfid":21386.0,"subid":"S","name":"Pine Peak Reef","long":150.26,"lat":-21.52,"area":0.0000451,"perim":0.028485586,"bleach":3,"blchyn":1,"year":1998},{"rfid":21387.0,"subid":"S","name":"Sphinx Reef","long":150.15,"lat":-21.53,"area":0.0000325,"perim":0.068745045,"bleach":2,"blchyn":1,"year":1998},{"rfid":21393.0,"subid":"S","name":null,"long":150.32,"lat":-21.66,"area":null,"perim":null,"bleach":2,"blchyn":1,"year":1998},{"rfid":21397.0,"subid":"S","name":"Normanby Reef","long":150.22,"lat":-21.65,"area":0.00000866,"perim":0.012063869,"bleach":2,"blchyn":1,"year":1998},{"rfid":21399.0,"subid":"S","name":"East Spur Reef","long":150.29,"lat":-21.69,"area":0.0000399,"perim":0.026034575,"bleach":3,"blchyn":1,"year":1998},{"rfid":21401.0,"subid":"S","name":"Howard Islet Reef","long":150.32,"lat":-21.73,"area":0.0000257,"perim":0.020237597,"bleach":1,"blchyn":1,"year":1998},{"rfid":21414.0,"subid":"A","name":"Bamborough Island Reef (No 1)","long":150.1,"lat":-21.93,"area":0.000193507,"perim":0.087936703,"bleach":2,"blchyn":1,"year":1998},{"rfid":21415.0,"subid":"S","name":"Jeffreys Rocks Reef","long":150.23,"lat":-21.92,"area":0.0000156,"perim":0.018782085,"bleach":2,"blchyn":1,"year":1998},{"rfid":21418.0,"subid":"A","name":"Hunter Island Reef (No 1)","long":150.13,"lat":-21.95,"area":0.000220581,"perim":0.102134669,"bleach":1,"blchyn":1,"year":1998},{"rfid":21422.0,"subid":"S","name":"Black Rock Reef","long":150.17,"lat":-21.99,"area":0.00000295,"perim":0.011817566,"bleach":2,"blchyn":1,"year":1998},{"rfid":21423.0,"subid":"B","name":"Marble Reef","long":150.19,"lat":-21.98,"area":0.0000668,"perim":0.041903835,"bleach":1,"blchyn":1,"year":1998},{"rfid":21428.0,"subid":"S","name":"High Peak Reef","long":150.68,"lat":-21.96,"area":0.000087,"perim":0.186267771,"bleach":3,"blchyn":1,"year":1998},{"rfid":21558.0,"subid":"S","name":"U\/N Reef","long":152.54,"lat":-21.56,"area":0.000561629,"perim":0.110685657,"bleach":5,"blchyn":0,"year":1998},{"rfid":21559.0,"subid":"S","name":"U\/N Reef","long":152.53,"lat":-21.58,"area":0.000316294,"perim":0.079192918,"bleach":5,"blchyn":0,"year":1998},{"rfid":21560.0,"subid":"S","name":"U\/N Reef","long":152.54,"lat":-21.67,"area":0.000375912,"perim":0.073456837,"bleach":5,"blchyn":0,"year":1998},{"rfid":21565.0,"subid":"S","name":"Bills Reef","long":152.59,"lat":-21.79,"area":0.000751249,"perim":0.122672118,"bleach":5,"blchyn":0,"year":1998},{"rfid":21566.0,"subid":"S","name":"Blu-Lion Reef","long":152.63,"lat":-21.83,"area":0.000509588,"perim":0.090023059,"bleach":5,"blchyn":0,"year":1998},{"rfid":21570.0,"subid":"S","name":"Triangle Reef","long":152.64,"lat":-21.85,"area":0.000185698,"perim":0.054602484,"bleach":5,"blchyn":0,"year":1998},{"rfid":21575.0,"subid":"S","name":"Heart Reef","long":152.66,"lat":-21.9,"area":0.000152543,"perim":0.045193936,"bleach":5,"blchyn":0,"year":1998},{"rfid":21579.0,"subid":"S","name":"Hill Reef","long":152.67,"lat":-21.91,"area":0.0000935,"perim":0.036053896,"bleach":5,"blchyn":0,"year":1998},{"rfid":21582.0,"subid":"S","name":"Beacon Reef","long":152.68,"lat":-21.94,"area":0.000116542,"perim":0.041865045,"bleach":5,"blchyn":0,"year":1998},{"rfid":21586.0,"subid":"S","name":"Follett Reef","long":152.7,"lat":-21.97,"area":0.000209531,"perim":0.055221023,"bleach":5,"blchyn":0,"year":1998},{"rfid":22030.0,"subid":"S","name":"Shields Reef","long":150.38,"lat":-22.01,"area":0.0000362,"perim":0.027772844,"bleach":1,"blchyn":1,"year":1998},{"rfid":22032.0,"subid":"S","name":"Hexham Reef","long":150.37,"lat":-22.02,"area":0.0000493,"perim":0.105145677,"bleach":2,"blchyn":1,"year":1998},{"rfid":22039.0,"subid":"S","name":"Table Reef","long":150.3,"lat":-22.03,"area":0.0000087,"perim":0.012090606,"bleach":2,"blchyn":1,"year":1998},{"rfid":22041.0,"subid":"S","name":"North Rock Reef","long":150.36,"lat":-22.18,"area":0.000000875,"perim":0.005155182,"bleach":2,"blchyn":1,"year":1998},{"rfid":22052.0,"subid":"S","name":"Collins Reef","long":150.31,"lat":-22.23,"area":0.000509837,"perim":0.200802858,"bleach":2,"blchyn":1,"year":1998},{"rfid":22061.0,"subid":"S","name":"Sun Reef","long":150.24,"lat":-22.31,"area":0.00000664,"perim":0.014247005,"bleach":2,"blchyn":1,"year":1998},{"rfid":22070.0,"subid":"S","name":"Rothbury Reef","long":150.65,"lat":-22.03,"area":0.0000463,"perim":0.03640355,"bleach":2,"blchyn":1,"year":1998},{"rfid":22072.0,"subid":"S","name":"Leake Rock Reef","long":150.67,"lat":-22.08,"area":0.00000087,"perim":0.005131769,"bleach":2,"blchyn":1,"year":1998},{"rfid":22103.0,"subid":"S","name":"Half Moon Reef","long":152.73,"lat":-22.01,"area":0.000271574,"perim":0.063796434,"bleach":5,"blchyn":0,"year":1998},{"rfid":22106.0,"subid":"S","name":"U\/N Reef","long":152.74,"lat":-22.06,"area":0.000119658,"perim":0.04116927,"bleach":5,"blchyn":0,"year":1998},{"rfid":22116.0,"subid":"S","name":"Hook Reef","long":152.74,"lat":-22.1,"area":0.000334389,"perim":0.07915186,"bleach":5,"blchyn":0,"year":1998},{"rfid":22121.0,"subid":"S","name":"Sinker Reef","long":152.74,"lat":-22.12,"area":0.0000929,"perim":0.046372202,"bleach":5,"blchyn":0,"year":1998},{"rfid":22124.0,"subid":"S","name":"Taiwan Reef","long":152.76,"lat":-22.15,"area":0.000287525,"perim":0.065809535,"bleach":5,"blchyn":0,"year":1998},{"rfid":22131.0,"subid":"S","name":"Sunray Reef","long":152.76,"lat":-22.19,"area":0.000111694,"perim":0.04951095,"bleach":5,"blchyn":0,"year":1998},{"rfid":22133.0,"subid":"S","name":"Sandshoe Reef","long":152.75,"lat":-22.21,"area":0.000376069,"perim":0.115888821,"bleach":5,"blchyn":0,"year":1998},{"rfid":22140.0,"subid":"S","name":"Sweetlip Reef","long":152.73,"lat":-22.27,"area":0.001801277,"perim":0.230074813,"bleach":5,"blchyn":0,"year":1998},{"rfid":22142.0,"subid":"S","name":"U\/N Reef","long":152.73,"lat":-22.3,"area":0.0000574,"perim":0.035609525,"bleach":5,"blchyn":0,"year":1998},{"rfid":22143.0,"subid":"S","name":"U\/N Reef","long":152.72,"lat":-22.33,"area":0.000566679,"perim":0.111761924,"bleach":5,"blchyn":0,"year":1998},{"rfid":22145.0,"subid":"S","name":"Hixson Cay Reef","long":152.73,"lat":-22.35,"area":0.0000803,"perim":0.054209917,"bleach":5,"blchyn":0,"year":1998},{"rfid":22147.0,"subid":"A","name":"U\/N Reef","long":152.69,"lat":-22.36,"area":0.000319767,"perim":0.115788121,"bleach":5,"blchyn":0,"year":1998},{"rfid":22147.0,"subid":"B","name":"South Hixson Reef","long":152.72,"lat":-22.36,"area":0.000158569,"perim":0.058782871,"bleach":5,"blchyn":0,"year":1998},{"rfid":23001.0,"subid":"S","name":"Conical Rocks Reef","long":150.88,"lat":-23.04,"area":0.0000505,"perim":0.031110926,"bleach":2,"blchyn":1,"year":1998},{"rfid":23002.0,"subid":"S","name":"Corroboree Reef","long":150.88,"lat":-23.05,"area":0.0000983,"perim":0.053416772,"bleach":1,"blchyn":1,"year":1998},{"rfid":23003.0,"subid":"S","name":null,"long":151.77,"lat":-23.98,"area":null,"perim":null,"bleach":1,"blchyn":1,"year":1998},{"rfid":23004.0,"subid":"B","name":"North Keppel Island Reef (No 2)","long":150.89,"lat":-23.08,"area":0.000116198,"perim":0.065113127,"bleach":1,"blchyn":1,"year":1998},{"rfid":23006.0,"subid":"S","name":"Square Rocks Reef","long":150.88,"lat":-23.1,"area":0.0000337,"perim":0.020957794,"bleach":1,"blchyn":1,"year":1998},{"rfid":23007.0,"subid":"S","name":"Sloping Reef","long":150.9,"lat":-23.1,"area":0.0000209,"perim":0.027391646,"bleach":1,"blchyn":1,"year":1998},{"rfid":23009.0,"subid":"S","name":"Miall Reef","long":150.9,"lat":-23.15,"area":0.0000721,"perim":0.043163832,"bleach":1,"blchyn":1,"year":1998},{"rfid":23010.0,"subid":"S","name":"Middle Island Reef","long":150.91,"lat":-23.17,"area":0.0000591,"perim":0.041671789,"bleach":1,"blchyn":1,"year":1998},{"rfid":23012.0,"subid":"A","name":"Great Keppel Island Reef (No 1)","long":150.96,"lat":-23.16,"area":0.0000802,"perim":0.052341334,"bleach":1,"blchyn":1,"year":1998},{"rfid":23012.0,"subid":"B","name":"Great Keppel Island Reef (No 2)","long":150.97,"lat":-23.15,"area":0.0000776,"perim":0.051231238,"bleach":1,"blchyn":1,"year":1998},{"rfid":23012.0,"subid":"C","name":"Great Keppel Island Reef (No 3)","long":150.99,"lat":-23.17,"area":0.000129728,"perim":0.059036545,"bleach":1,"blchyn":1,"year":1998},{"rfid":23012.0,"subid":"D","name":"Great Keppel Island Reef (No 4)","long":150.96,"lat":-23.19,"area":0.0000673,"perim":0.055993572,"bleach":1,"blchyn":1,"year":1998},{"rfid":23014.0,"subid":"S","name":"Halfway Island Reef","long":150.97,"lat":-23.2,"area":0.0000109,"perim":0.01699988,"bleach":1,"blchyn":1,"year":1998},{"rfid":23016.0,"subid":"S","name":"Humpy Reef","long":150.97,"lat":-23.21,"area":0.000018,"perim":0.023692476,"bleach":1,"blchyn":1,"year":1998},{"rfid":23030.0,"subid":"S","name":"The Child Reef","long":151.08,"lat":-23.16,"area":0.00000925,"perim":0.019821831,"bleach":1,"blchyn":1,"year":1998},{"rfid":23031.0,"subid":"S","name":null,"long":151.07,"lat":-23.16,"area":null,"perim":null,"bleach":1,"blchyn":1,"year":1998},{"rfid":23033.0,"subid":"S","name":null,"long":151.1,"lat":-23.2,"area":null,"perim":null,"bleach":2,"blchyn":1,"year":1998},{"rfid":23036.0,"subid":"S","name":"Hummocky Reef","long":151.15,"lat":-23.4,"area":0.0000522,"perim":0.11235658,"bleach":2,"blchyn":1,"year":1998},{"rfid":23037.0,"subid":"S","name":"Ship Reef","long":151.18,"lat":-23.41,"area":0.00000322,"perim":0.012245987,"bleach":1,"blchyn":1,"year":1998},{"rfid":23038.0,"subid":"S","name":"Fairway Rock Reef","long":151.17,"lat":-23.42,"area":0.00000246,"perim":0.010747927,"bleach":2,"blchyn":1,"year":1998},{"rfid":23052.0,"subid":"S","name":"Heron Reef","long":151.96,"lat":-23.45,"area":0.003465342,"perim":0.337194839,"bleach":4,"blchyn":1,"year":1998},{"rfid":23053.0,"subid":"S","name":"Wistari Reef","long":151.88,"lat":-23.47,"area":0.002487632,"perim":0.224550357,"bleach":3,"blchyn":1,"year":1998},{"rfid":23054.0,"subid":"S","name":"Sykes Reef","long":152.03,"lat":-23.44,"area":0.001472964,"perim":0.178047493,"bleach":2,"blchyn":1,"year":1998},{"rfid":23055.0,"subid":"S","name":"One Tree Reef","long":152.06,"lat":-23.5,"area":0.00144896,"perim":0.204410748,"bleach":3,"blchyn":1,"year":1998},{"rfid":23055.0,"subid":"S","name":"One Tree Reef","long":152.06,"lat":-23.5,"area":0.00144896,"perim":0.204410748,"bleach":4,"blchyn":1,"year":1998},{"rfid":23056.0,"subid":"S","name":"Rundle Reef","long":151.27,"lat":-23.54,"area":0.000278953,"perim":0.085615265,"bleach":1,"blchyn":1,"year":1998},{"rfid":23059.0,"subid":"D","name":"Curtis Island Reef (No 4)","long":151.31,"lat":-23.75,"area":0.000141366,"perim":0.076028856,"bleach":2,"blchyn":1,"year":1998},{"rfid":23063.0,"subid":"S","name":null,"long":151.37,"lat":-23.8,"area":null,"perim":null,"bleach":1,"blchyn":1,"year":1998},{"rfid":23066.0,"subid":"S","name":"Curtis Rock Reef","long":151.47,"lat":-23.94,"area":0.0000038,"perim":0.008654033,"bleach":1,"blchyn":1,"year":1998},{"rfid":23067.0,"subid":"S","name":null,"long":151.48,"lat":-23.96,"area":null,"perim":null,"bleach":1,"blchyn":1,"year":1998},{"rfid":23068.0,"subid":"S","name":"Erskine Reef","long":151.77,"lat":-23.5,"area":0.000224458,"perim":0.075733799,"bleach":2,"blchyn":1,"year":1998},{"rfid":23069.0,"subid":"S","name":"Mast Head Reef","long":151.74,"lat":-23.54,"area":0.001192023,"perim":0.187848546,"bleach":2,"blchyn":1,"year":1998},{"rfid":23071.0,"subid":"S","name":"Polmaise Reef","long":151.68,"lat":-23.56,"area":0.000710199,"perim":0.119364319,"bleach":2,"blchyn":1,"year":1998},{"rfid":23073.0,"subid":"S","name":"Ethel Rock Reef","long":151.63,"lat":-23.97,"area":0.000000886,"perim":0.005179913,"bleach":1,"blchyn":1,"year":1998},{"rfid":23074.0,"subid":"C","name":"U\/N Reef","long":151.66,"lat":-23.98,"area":0.0000278,"perim":0.023637595,"bleach":2,"blchyn":1,"year":1998},{"rfid":23075.0,"subid":"S","name":"Outer Rock Reef","long":151.77,"lat":-23.98,"area":0.000000888,"perim":0.005181741,"bleach":2,"blchyn":1,"year":1998},{"rfid":23076.0,"subid":"S","name":"Lamont Reef","long":152.04,"lat":-23.6,"area":0.000292035,"perim":0.10119333,"bleach":3,"blchyn":1,"year":1998},{"rfid":23078.0,"subid":"S","name":"Llwellyn Reef","long":152.18,"lat":-23.7,"area":0.001153348,"perim":0.153331737,"bleach":2,"blchyn":1,"year":1998},{"rfid":23078.0,"subid":"S","name":"Llwellyn Reef","long":152.18,"lat":-23.7,"area":0.001153348,"perim":0.153331737,"bleach":4,"blchyn":1,"year":1998},{"rfid":23079.0,"subid":"S","name":"Boult Reef","long":152.27,"lat":-23.76,"area":0.000552571,"perim":0.097241994,"bleach":5,"blchyn":0,"year":1998},{"rfid":23080.0,"subid":"S","name":"Hoskyn Islands Reef","long":152.29,"lat":-23.81,"area":0.000227643,"perim":0.080136932,"bleach":5,"blchyn":0,"year":1998},{"rfid":23081.0,"subid":"S","name":"Fairfax Islands Reef","long":152.37,"lat":-23.86,"area":0.000374602,"perim":0.109729247,"bleach":5,"blchyn":0,"year":1998},{"rfid":23082.0,"subid":"S","name":"Lady Musgrave Reef","long":152.41,"lat":-23.91,"area":0.000967579,"perim":0.140572827,"bleach":3,"blchyn":1,"year":1998},{"rfid":23082.0,"subid":"S","name":"Lady Musgrave Reef","long":152.41,"lat":-23.91,"area":0.000967579,"perim":0.140572827,"bleach":5,"blchyn":0,"year":1998},{"rfid":24002.0,"subid":"S","name":"Jansen Reef","long":151.72,"lat":-24.01,"area":0.000000886,"perim":0.005191498,"bleach":1,"blchyn":1,"year":1998},{"rfid":24003.0,"subid":"S","name":"U\/N Reef","long":151.73,"lat":-24.01,"area":0.0000951,"perim":0.043786193,"bleach":2,"blchyn":1,"year":1998},{"rfid":24004.0,"subid":"S","name":"Middle Rocks Reef","long":151.78,"lat":-24.0,"area":0.000000888,"perim":0.005195063,"bleach":2,"blchyn":1,"year":1998},{"rfid":24008.0,"subid":"S","name":"Lady Elliot Island Reef","long":152.72,"lat":-24.11,"area":0.0000705,"perim":0.060482353,"bleach":3,"blchyn":1,"year":1998},{"rfid":null,"subid":"S","name":null,"long":148.28,"lat":-19.98,"area":null,"perim":null,"bleach":1,"blchyn":1,"year":1998},{"rfid":null,"subid":"S","name":null,"long":151.23,"lat":-23.49,"area":null,"perim":null,"bleach":2,"blchyn":1,"year":1998},{"rfid":null,"subid":"S","name":null,"long":143.5,"lat":-12.45,"area":null,"perim":null,"bleach":4,"blchyn":1,"year":1998},{"rfid":null,"subid":"S","name":null,"long":143.53,"lat":-12.53,"area":null,"perim":null,"bleach":4,"blchyn":1,"year":1998},{"rfid":null,"subid":"S","name":null,"long":147.83,"lat":-19.73,"area":null,"perim":null,"bleach":1,"blchyn":1,"year":1998},{"rfid":null,"subid":"S","name":null,"long":147.93,"lat":-19.88,"area":null,"perim":null,"bleach":1,"blchyn":1,"year":1998},{"rfid":null,"subid":"S","name":null,"long":148.65,"lat":-20.2,"area":null,"perim":null,"bleach":2,"blchyn":1,"year":1998},{"rfid":null,"subid":"S","name":null,"long":149.13,"lat":-20.47,"area":null,"perim":null,"bleach":5,"blchyn":0,"year":1998},{"rfid":null,"subid":"S","name":null,"long":143.33,"lat":-12.32,"area":null,"perim":null,"bleach":4,"blchyn":1,"year":1998},{"rfid":null,"subid":"S","name":null,"long":143.42,"lat":-12.3,"area":null,"perim":null,"bleach":4,"blchyn":1,"year":1998},{"rfid":null,"subid":"S","name":null,"long":143.5,"lat":-12.42,"area":null,"perim":null,"bleach":4,"blchyn":1,"year":1998},{"rfid":null,"subid":"S","name":null,"long":143.43,"lat":-12.48,"area":null,"perim":null,"bleach":4,"blchyn":1,"year":1998},{"rfid":null,"subid":"S","name":null,"long":147.02,"lat":-19.18,"area":null,"perim":null,"bleach":2,"blchyn":1,"year":1998},{"rfid":null,"subid":"S","name":null,"long":146.57,"lat":-19.03,"area":null,"perim":null,"bleach":1,"blchyn":1,"year":1998},{"rfid":null,"subid":"S","name":null,"long":145.7,"lat":-16.4,"area":null,"perim":null,"bleach":3,"blchyn":1,"year":1998},{"rfid":null,"subid":"S","name":null,"long":146.61,"lat":-19.03,"area":null,"perim":null,"bleach":1,"blchyn":1,"year":1998},{"rfid":null,"subid":"S","name":null,"long":145.7,"lat":-14.68,"area":null,"perim":null,"bleach":5,"blchyn":0,"year":1998},{"rfid":null,"subid":"S","name":null,"long":145.68,"lat":-16.3,"area":null,"perim":null,"bleach":4,"blchyn":1,"year":1998},{"rfid":null,"subid":"S","name":null,"long":145.8,"lat":-16.47,"area":null,"perim":null,"bleach":5,"blchyn":0,"year":1998},{"rfid":null,"subid":"S","name":null,"long":145.72,"lat":-14.8,"area":null,"perim":null,"bleach":5,"blchyn":0,"year":1998}]